stop_id,stop_name,stop_lat,stop_lon
1001,"Achtelky",49.185345,16.542757
1002,"Akátky",49.208635,16.64873
1003,"Antonína Procházky",49.193926,16.560528
1004,"Adamcova",49.218339,16.519955
1006,"Antonínská",49.203426,16.606797
1007,"Anthropos",49.193345,16.566013
1008,"Arbesova",49.225977,16.630652
1010,"Airport Park",49.158125,16.683869
1011,"Autobusové nádraží",49.186521,16.617986
1012,"Bartákova",49.203985,16.678964
1013,"Barvičova",49.201118,16.575765
1014,"Babická",49.228067,16.652341
1015,"Bartolomějská",49.203599,16.489424
1016,"Bednářova",49.161902,16.61357
1017,"Bellova",49.194042,16.531232
1018,"Bělohorská",49.189951,16.662938
1021,"Běloruská",49.17059,16.581157
1023,"Bieblova",49.215971,16.615406
1026,"Bílá hora",49.194275,16.667629
1028,"Blažkova",49.230083,16.631032
1031,"Bohunická",49.162408,16.599597
1033,"Borodinova",49.196244,16.545493
1034,"Borovník",49.198485,16.499738
1036,"Bořetická",49.201411,16.658674
1037,"Bosonohy",49.176446,16.525653
1038,"Botanická",49.210704,16.597622
1041,"Bráfova",49.206994,16.570547
1042,"Branka",49.219371,16.547813
1043,"Brechtova",49.233751,16.629322
1046,"Brněnky",49.178866,16.675155
1047,"Burianovo náměstí",49.212378,16.578603
1048,"Buzkova",49.19415,16.641128
1052,"Bzenecká",49.20597,16.66112
1053,"Celní",49.179358,16.595285
1055,"Čápkova",49.203434,16.593136
1058,"Čejkovická",49.200336,16.662161
1061,"Čermákova",49.164343,16.565103
1062,"Černého",49.213984,16.52295
1063,"Černohorská",49.258708,16.571389
1064,"Černovická terasa I",49.171508,16.673293
1065,"Černovická terasa II",49.167728,16.675694
1066,"Černovická",49.176879,16.627324
1067,"Černovické nábřeží",49.180623,16.62986
1068,"Černovičky",49.183212,16.668265
1069,"Čertova rokle",49.226399,16.623268
1070,"Červený kopec",49.182091,16.587995
1071,"Červený písek",49.220472,16.657354
1072,"Červinkova",49.225029,16.582866
1073,"Česká",49.19797,16.60599
1077,"Čtvery hony",49.22588,16.645263
1078,"Čtvrtě",49.178319,16.56233
1082,"Dělnický dům",49.195559,16.649869
1083,"Depo ČD",49.214863,16.652828
1085,"Díly",49.25425,16.574421
1086,"Dětská nemocnice",49.202933,16.61883
1087,"Divišova čtvrť",49.223589,16.613021
1088,"Dobrovského",49.21806,16.58765
1091,"Dohnalova",49.25039,16.618338
1092,"Dolní Heršpice",49.152198,16.621592
1095,"Drážní",49.167392,16.685454
1096,"Drdy",49.209414,16.492426
1097,"Dunajská",49.169155,16.556081
1098,"Dvorska, smyčka",49.143394,16.707386
1100,"Erbenova",49.209515,16.615701
11001,"Brno-Černovice",49.188984,16.631233
11002,"Brno-Horní Heršpice",49.167404,16.60686
11009,"Brno-Starý Lískovec",49.162195,16.571098
1101,"Dvůr v lese",49.125693,16.633448
1102,"Ečerova",49.218242,16.509265
1103,"Elplova",49.210447,16.674989
1104,"Edisonova",49.22828,16.576461
1105,"Ericha Roučky",49.175227,16.669237
1106,"Faměrovo náměstí",49.176871,16.640466
1107,"Filipova",49.217638,16.52517
1108,"Filkukova",49.243881,16.581656
1111,"Fillova",49.229226,16.616897
1112,"Fügnerova",49.219976,16.619348
1113,"Gajdošova",49.198483,16.645774
1116,"Geislerova",49.192767,16.635051
1117,"Glinkova",49.193913,16.544278
1118,"Glocova",49.151212,16.659301
1121,"Grohova",49.20124,16.599535
1122,"Gruzínská",49.166131,16.585378
1127,"Hájecká",49.17466,16.641766
1128,"Halasovo náměstí",49.223382,16.622508
1130,"Hamerláky",49.237154,16.603972
1131,"Hanácká",49.147098,16.667018
1132,"Haškova",49.233657,16.624466
1136,"Havránkova",49.157661,16.621496
1137,"Heinrichova",49.200413,16.584511
1138,"Heleny Malířové",49.223278,16.629363
1139,"Helenčina",49.206852,16.486036
1141,"Heršpická",49.170364,16.59963
1143,"Hlavní",49.216993,16.560352
1144,"Hladíkova",49.187274,16.62586
1146,"Hlavní nádraží",49.191636,16.612845
1147,"Hluboká",49.175552,16.5962
1148,"Hněvkovského",49.169713,16.626163
1149,"Holandská",49.1817,16.605765
1150,"Högrova",49.228712,16.604394
1151,"Holásky",49.143337,16.650773
1152,"Holzova",49.1948,16.696965
1153,"Horácké náměstí",49.247766,16.582363
1154,"Holásecká",49.147593,16.661368
1155,"Horská",49.221613,16.57949
1156,"Horní Heršpice",49.166686,16.61655
1157,"Horníkova",49.211974,16.676556
1160,"Hradiska",49.23054,16.657064
1161,"Hoštická",49.173825,16.528135
1162,"Houbalova",49.205855,16.674029
1163,"Hrad Špilberk",49.195209,16.598154
1166,"Hrnčířská",49.210437,16.602748
1167,"Hudcova",49.235497,16.587256
1168,"Humenná",49.167777,16.573016
1171,"Husitská",49.223614,16.594592
1172,"Hutařova",49.226182,16.588379
1173,"Hviezdoslavova",49.181927,16.676587
1176,"Hybešova",49.189266,16.603113
1177,"Schodová",49.206603,16.612234
1178,"Chaloupky",49.222913,16.556764
1181,"Charvatská",49.219391,16.592381
1182,"Chrlice, smyčka",49.12657,16.654794
1183,"Chrlice, nádraží",49.13196,16.656822
1185,"Chvalovka",49.214874,16.499895
1186,"Chrlická",49.14413,16.665114
1187,"Chrlické náměstí",49.135609,16.653533
1189,"Ivanovice, Globus",49.262808,16.57799
1191,"Ivanovické náměstí",49.153348,16.653773
1193,"Janáčkovo divadlo",49.198081,16.610171
1195,"Jarmily Kurandové",49.230235,16.604438
1196,"Jandáskova",49.255658,16.589678
1197,"Jarní ČD",49.220582,16.652825
1198,"Jehnice",49.271378,16.595779
12002,"Spešov",49.393878,16.630693
12003,"Spešov, horní část",49.39406,16.62594
12004,"Lipůvka",49.338776,16.552699
12005,"Lipůvka, ZŠ",49.338142,16.558029
12006,"Svinošice",49.333298,16.574451
12007,"Svinošice, náves",49.333645,16.575506
12008,"Šebrov-Kateřina, Sv. Kateřina",49.330247,16.614367
12009,"Šebrov-Kateřina, Šebrov",49.328891,16.598355
12011,"Vavřinec, Nové Dvory",49.381265,16.712819
12012,"Vavřinec, Suchdol",49.391377,16.717568
12013,"Vavřinec, Veselice",49.395137,16.713123
12014,"Milonice",49.36808,16.565709
12016,"Závist",49.374632,16.572812
12018,"Kunštát, Touboř, rozcestí",49.497688,16.489758
12019,"Kunštát, Újezd",49.50691,16.539206
1202,"Jemelkova",49.173248,16.548706
12020,"Makov",49.518297,16.484328
12021,"Makov, hájenka",49.517438,16.477055
12022,"Nýrov",49.527963,16.536341
12023,"Zbraslavec",49.484485,16.528109
12024,"Zbraslavec, rozcestí k závodu",49.489828,16.523143
12025,"Zbraslavec, závod Best",49.490995,16.519361
12026,"Hodonín u Kunštátu",49.501284,16.409916
12027,"Tasovice",49.496425,16.440405
12028,"Tasovice, rozcestí",49.511078,16.435412
12029,"Okrouhlá",49.508335,16.732441
1203,"Jílkova",49.196001,16.636897
12030,"Okrouhlá, horní konec",49.510832,16.738122
12031,"Újezd u Černé Hory, SDP",49.378227,16.556024
12032,"Újezd u Černé Hory",49.3704,16.544608
12033,"Boskovice, Šmelcovna",49.48833,16.691848
12034,"Boskovice, Hrádkov",49.489347,16.70287
12035,"Boskovice, Vratíkov",49.496974,16.710415
12036,"Sebranice, Vaculka",49.492859,16.588124
12037,"Sebranice, ALPS",49.491011,16.58875
1204,"Jezerní",49.141383,16.61721
12040,"Blansko, Písečná, hotel Probe",49.354507,16.653087
12041,"Blansko, Komenského",49.359837,16.638651
1206,"Jindřichova",49.213196,16.583044
1207,"Jiránkova",49.187536,16.633489
1208,"Jírova",49.209219,16.687734
1209,"Jírovcova",49.188047,16.534331
12102,"Brno, Na Spáleništi",49.243873,16.713933
12104,"Ochoz u Brna, kamenolom",49.253999,16.753389
12105,"Ochoz u Brna, myslivna pod Hádkem",49.2517,16.764203
12106,"Ochoz u Brna, Na pastýřkách",49.251335,16.733611
12107,"Ochoz u Brna, příhon",49.254627,16.746378
12108,"Ochoz u Brna, U Votrubů",49.255852,16.732638
12109,"Ochoz u Brna, rozcestí Kanice",49.262329,16.729613
1211,"Jugoslávská",49.204675,16.623891
12110,"Ochoz u Brna, Říčky, rozc.",49.245586,16.724876
12111,"Ochoz u Brna, obecní úřad",49.254296,16.736846
12113,"Bílovice nad Svitavou, UP závody",49.250448,16.67738
12115,"Bílovice nad Svitavou, u kapličky",49.24842,16.674345
12118,"Kanice",49.264053,16.713886
1212,"Juliánov",49.196209,16.654629
12120,"Kanice, koupaliště",49.260693,16.70841
12121,"Kanice, škola",49.264457,16.711083
12122,"Řícmanice",49.257062,16.693207
12123,"Řícmanice, u lomu",49.258378,16.701651
12124,"Řícmanice, u skály",49.253507,16.680573
12125,"Řícmanice, Na Štukách",49.254554,16.685905
1213,"Jundrov",49.211751,16.55065
1214,"Jundrovský most",49.210068,16.557459
1215,"Jundrovská",49.211889,16.560144
12151,"Bílovice nad Svitavou, Na Nivách",49.242503,16.658286
12153,"Bílovice nad Svitavou, Polanka",49.250009,16.667782
12154,"Bílovice nad Svitavou, hřbitov",49.245226,16.66803
12155,"Bílovice nad Svitavou, Nad Tratí",49.250683,16.669068
12156,"Bílovice nad Svitavou, Soběšická",49.244264,16.657272
12157,"Bílovice nad Svitavou, Vodárenská",49.244169,16.661221
12158,"Bílovice nad Svitavou, žel. stanice",49.243028,16.674009
12159,"Bílovice nad Svitavou, Vojanka",49.251396,16.665709
1216,"Jundrov, hřiště",49.204663,16.560121
12160,"Bílovice nad Svitavou, náměstí",49.246771,16.67254
1217,"Vozovna Komín",49.213719,16.559676
1218,"Jungmannova",49.22097,16.5965
12201,"Babice nad Svitavou, dolní zastávka",49.279869,16.694012
12202,"Babice nad Svitavou, horní zastávka",49.284465,16.696982
12205,"Březina, jeskyně Výpustek",49.291428,16.726978
12206,"Březina, Lhotky, rozcestí 1.7",49.286848,16.764426
12207,"Březina, u pomníku",49.282012,16.754153
12208,"Březina, Táborská",49.281478,16.749272
12209,"Březina, u sokolovny",49.28416,16.759465
1221,"Kamechy",49.215518,16.495697
12210,"Bukovinka, Pindula",49.295128,16.796592
12211,"Bukovina",49.297528,16.772977
12212,"Bukovina, rozcestí 2.0",49.290291,16.763768
12213,"Bukovina, škola",49.29808,16.775843
12215,"Bukovinka",49.293166,16.805062
12216,"Habrůvka",49.302742,16.723657
12218,"Habrůvka, Josefov",49.308362,16.690512
12219,"Adamov, Stará huť",49.306628,16.677588
1222,"Kamenice",49.177702,16.573063
12220,"Křtiny, arboretum",49.318617,16.744597
12221,"Křtiny, Kolonka",49.302159,16.743308
12222,"Křtiny, koupaliště",49.294592,16.747538
12223,"Křtiny, pivovar",49.292333,16.75651
12225,"Křtiny, náměstí",49.29701,16.743809
12226,"Adamov, Karlov",49.306675,16.665753
12228,"Adamov, závod",49.30339,16.650323
12229,"Adamov, železniční stanice, točna",49.292238,16.670122
1223,"Kamenný vrch",49.179831,16.54776
12230,"Adamov, železniční stanice",49.295561,16.663623
12231,"Adamov, železniční zastávka",49.301026,16.650368
12232,"Adamov, Adamov III, točna",49.28975,16.662247
12233,"Adamov, Adamov III",49.291236,16.663963
12234,"Adamov, Kolonka",49.292452,16.666483
12236,"Adamov, Smetanovo náměstí",49.301899,16.652118
12237,"Adamov, Horka",49.300851,16.658047
12238,"Adamov, Horka, točna",49.302925,16.655013
12239,"Lažany",49.353978,16.550992
12240,"Lažany, rozcestí Újezd",49.359463,16.554464
12241,"Březina, škola",49.281931,16.750376
12242,"Bukovinka, Černý les",49.295136,16.79395
1226,"Kamenolom",49.221927,16.536894
1227,"Karpatská",49.168067,16.561978
1228,"Kampelíkova",49.197448,16.581192
1230,"Kavčí",49.21672,16.500537
12301,"Kotvrdovice, horní konec",49.35399,16.786858
12302,"Kotvrdovice, obecní úřad",49.355177,16.784182
12303,"Kotvrdovice, žleb",49.356753,16.782577
12304,"Krásensko, rozcestí 1.0",49.368567,16.818525
12305,"Krásensko",49.365116,16.829078
12306,"Krásensko, ZD",49.360273,16.831087
12307,"Kotvrdovice, rozcestí Krasová",49.356501,16.776081
12308,"Lipovec",49.382805,16.807698
12309,"Lipovec, horní konec",49.37908,16.812818
1231,"Karlova",49.212915,16.643549
12310,"Lipovec, kravín",49.386168,16.810772
12311,"Lipovec, točna",49.388843,16.802232
12312,"Senetářov, Chemoplast",49.348578,16.811332
12313,"Senetářov, Jednota",49.351367,16.806697
12314,"Senetářov, MŠ",49.354867,16.804213
12315,"Blansko, Skalní Mlýn",49.3636,16.708253
12316,"Jedovnice, Chaloupky",49.339842,16.747774
12317,"Jedovnice, garáže ČAD",49.34764,16.761251
12318,"Jedovnice, náměstí",49.343278,16.754643
12319,"Jedovnice, pila",49.331892,16.739983
1232,"Karolíny Světlé",49.203161,16.693879
12320,"Jedovnice, Újezd",49.339426,16.748598
12321,"Krasová",49.361398,16.767632
12322,"Krasová, dolní konec",49.358998,16.764543
12323,"Olomučany, dolní konec",49.337113,16.666925
12324,"Olomučany, horní konec",49.325477,16.677109
12325,"Olomučany, restaurace",49.329918,16.672347
12326,"Olomučany, škola",49.33313,16.66991
12327,"Olomučany, točna",49.322893,16.67993
12328,"Ostrov u Macochy, Balcarka",49.377199,16.757568
12329,"Ostrov u Macochy, Jednota",49.382005,16.766531
1233,"Kartouzská",49.216824,16.598987
12330,"Ostrov u Macochy, léčebna",49.379492,16.761712
12331,"Ostrov u Macochy, u rybníka",49.378859,16.764366
12332,"Rudice",49.337428,16.725183
12334,"Rudice, rozcestí 2.0",49.344647,16.735222
12335,"Vilémovice",49.361242,16.746443
12336,"Vilémovice, Macocha rozc. 2.0",49.371431,16.746444
12337,"Blansko, Kaufland",49.370152,16.642519
12338,"Blansko, průmyslová zóna",49.377279,16.642138
12339,"Blansko, Svitavská",49.359251,16.642955
12340,"Blansko, rozvodna, točna",49.350642,16.644909
12341,"Blansko, Synthon",49.353642,16.641533
12342,"Blansko, aut. st.",49.353521,16.646979
12343,"Blansko, Brněnská",49.35642,16.639269
12344,"Blansko, Čelakovského",49.366449,16.648607
12345,"Blansko, Češkovice, chatová oblast",49.379413,16.682008
12346,"Blansko, Češkovice",49.377118,16.675243
12348,"Blansko, Starohraběcí huť",49.356875,16.684215
12349,"Blansko, areál ČKD",49.353313,16.673467
1235,"Klarisky",49.257047,16.622603
12350,"Blansko, Klepačov, U kapličky",49.343191,16.660455
12351,"Blansko, Gellhornova",49.349693,16.65633
12352,"Blansko, Arnoštovo údolí",49.353165,16.66937
12353,"Blansko, Gellhornova rozcestí",49.35241,16.68256
12354,"Blansko, Dolní Lhota",49.384353,16.632894
12355,"Blansko, Dolní Lhota, škola",49.381918,16.63151
12356,"Blansko, Dvorská",49.365367,16.644965
12357,"Blansko, Erbenova, škola",49.358538,16.656593
12358,"Blansko, Horní Lhota",49.384052,16.647172
12359,"Blansko, Hořice",49.356217,16.623013
12360,"Blansko, hřbitov",49.366969,16.65182
12361,"Blansko, Klepačov, točna",49.341605,16.665548
12362,"Blansko, Klepačov, spodní část",49.345348,16.657631
12363,"Blansko, Lažánky, kamnárna",49.352402,16.702037
12364,"Blansko, Lažánky, Márovky",49.350688,16.693005
12365,"Blansko, Lažánky, škola",49.351732,16.711995
12366,"Lipovec, dolní konec",49.391937,16.797926
12367,"Blansko, Lažánky",49.350763,16.707844
12368,"Blansko, Mánesova",49.367788,16.644849
1237,"Kleštínek",49.269431,16.595956
12370,"Blansko, pošta",49.355879,16.64971
12371,"Blansko, Metra 2, čerpací stanice",49.372116,16.641276
12372,"Blansko, Masarykova",49.352598,16.651733
12373,"Blansko, Bezručova",49.370592,16.645941
12374,"Blansko, Na Žižlavici",49.363702,16.681912
12375,"Blansko, Náměstí Míru",49.358057,16.651959
12376,"Blansko, náměstí Republiky",49.361613,16.644347
12377,"Blansko, náměstí Svobody",49.364868,16.644157
12378,"Blansko, Obůrka",49.376198,16.690512
12379,"Blansko, Okružní",49.374403,16.653057
1238,"Klicperova",49.202451,16.688124
12380,"Blansko, Olešná",49.33963,16.637227
12381,"Blansko, Písečná, penzion",49.354667,16.656703
12382,"Blansko, Písečná",49.35508,16.654007
12384,"Blansko, Podlesí",49.359574,16.661079
12385,"Blansko, Poliklinika",49.360943,16.652416
12386,"Blansko, Poříčí",49.362451,16.641309
12387,"Blansko, přehrada",49.360375,16.692937
12389,"Blansko, rozcestí Klepačov",49.346355,16.650873
12390,"Blansko, Sadová",49.359287,16.658128
12391,"Blansko, Seifertova",49.362427,16.645358
12392,"Blansko, Sever",49.368765,16.655574
12393,"Blansko, Supermarket Albert",49.353288,16.649513
12394,"Blansko, Těchov",49.368004,16.695261
12395,"Blansko, Těchov, MŠ",49.368022,16.690073
12396,"Lipovec, škola",49.38406,16.808073
12397,"Blansko, ul. 9. května",49.357039,16.656638
12399,"Blansko, Zborovce",49.37277,16.65012
12401,"Holštejn, rozc. 2.0",49.395312,16.770218
12402,"Holštejn",49.406067,16.777873
12403,"Kulířov",49.378768,16.84694
12404,"Lipovec, Marianín",49.389672,16.838365
12405,"Nové Sady",49.408905,16.901903
12406,"Rozstání, čekárna Na stráni",49.396277,16.848742
12407,"Rozstání, Baldovec, lom",49.407731,16.823391
12408,"Rozstání, Baldovec, točna",49.411725,16.822305
12409,"Rozstání, hřbitov",49.399651,16.835137
1241,"Kluchova",49.183141,16.563177
12410,"Rozstání, křižovatka",49.397095,16.836995
12411,"Rozstání, obchod",49.397513,16.84477
12412,"Studnice",49.375649,16.879734
12413,"Studnice, Odrůvky",49.394387,16.882099
12415,"Šošůvka, Na Bráně",49.413965,16.756121
12416,"Šošůvka, rozcestí 1.0",49.401761,16.751483
12417,"Šošůvka, obecní úřad",49.410268,16.752199
12418,"Bukovice",49.407422,16.488207
12419,"Bukovice, rozcestí 1.0",49.414123,16.492185
1242,"Klusáčkova",49.212134,16.592771
12420,"Rašov, dolní konec",49.416383,16.448175
12421,"Rašov, hostinec",49.41561,16.454468
12422,"Zhoř",49.415077,16.48026
12423,"Sloup",49.415453,16.739635
12424,"Sloup, Nová čtvrť",49.413691,16.735348
12425,"Vavřinec",49.402771,16.72031
12427,"Kuničky",49.43406,16.683617
12428,"Petrovice",49.413973,16.700938
12429,"Rájec-Jestřebí, Holešín",49.428315,16.654862
12430,"Doubravice, zahradnictví",49.431636,16.632933
12431,"Rájec-Jestřebí, Jestřebí",49.410975,16.617053
12432,"Rájec-Jestřebí, Karolín",49.407715,16.670517
12433,"Rájec-Jestřebí, Karolín, rozc.1.0",49.414345,16.682047
12434,"Rájec-Jestřebí, Komenského",49.415396,16.632578
12435,"Rájec-Jestřebí, lékárna",49.407568,16.632147
12436,"Rájec-Jestřebí, MKZ",49.403442,16.632571
12437,"Rájec-Jestřebí, náměstí",49.410927,16.639334
12438,"Rájec-Jestřebí, pošta",49.406178,16.637668
12439,"Rájec-Jestřebí, železniční stanice",49.408866,16.627295
12440,"Rájec-Jestřebí, Lenčov, křiž.",49.421079,16.665728
12441,"Ráječko",49.395251,16.642904
12442,"Žďár",49.421052,16.698148
12443,"Bořitov",49.422598,16.590117
12444,"Bořitov, sokolovna",49.419893,16.589843
12445,"Bořitov, ZD",49.424088,16.582656
12446,"Brťov-Jeneč, obecní úřad",49.413778,16.517202
12447,"Brťov-Jeneč, Jeneč",49.41111,16.507692
12448,"Brťov-Jeneč, Na Návsi",49.414708,16.513961
12449,"Černá Hora, Na kopci",49.410358,16.580818
12450,"Černá Hora, nám.",49.414723,16.582284
12453,"Černá Hora, Na Škrku",49.41475,16.571891
12454,"Lubě",49.396479,16.528379
12455,"Žernovník, obecní úřad",49.407095,16.545576
12456,"Žernovník, pod Horkou",49.411055,16.557176
12457,"Rašov, rozc. 1.0",49.439178,16.467531
12458,"Malá Lhota",49.391597,16.550408
12459,"Býkovice",49.429568,16.535336
1246,"Kociánka",49.225774,16.601808
12460,"Žerůtky",49.440563,16.536595
12461,"Býkovice, kaple",49.430158,16.538692
12462,"Dlouhá Lhota",49.428423,16.510978
12463,"Žernovník, Hasičský dům",49.404762,16.544333
12464,"Rozstání, ZŠ",49.39811,16.837101
12465,"Rozstání, křižovatka Baldovec",49.397253,16.837975
12466,"Sloup, koupaliště",49.418815,16.735107
1248,"Kohoutovice, hájenka",49.196467,16.531181
12501,"Vysočany",49.431883,16.810943
12502,"Vysočany, Housko",49.430718,16.798257
12503,"Brumov",49.461662,16.426932
12504,"Brumov, dolní konec",49.458362,16.431693
12505,"Brumov, rozcestí 0.5",49.455091,16.43577
12506,"Osiky",49.45658,16.421352
12507,"Osiky, rozcestí",49.446017,16.431717
12508,"Osiky, točna",49.454918,16.422437
12509,"Doubravice, nám.",49.434979,16.629459
1251,"Kohoutovická",49.207006,16.497999
12510,"Doubravice, ZD 0.3",49.43955,16.62644
12511,"Doubravice, žel.st.",49.439389,16.622876
12512,"Jabloňany",49.466338,16.604953
12513,"Lhota Rapotina",49.465343,16.625225
12514,"Lhota Rapotina, točna",49.466137,16.624646
12515,"Obora",49.452277,16.604263
12516,"Obora, Hutě",49.449435,16.595437
12517,"Újezd u Boskovic",49.463678,16.655392
12518,"Újezd u Boskovic, lom",49.453692,16.642022
12519,"Drnovice",49.468642,16.541195
1252,"Kolejní",49.230641,16.57191
12520,"Drnovice, hor.zast.",49.46788,16.534243
12521,"Drnovice, rozc.0.5",49.468238,16.533202
12523,"Lysice, Perná",49.446968,16.574575
12524,"Lysice, pohostinství",49.452366,16.537888
12525,"Drnovice, rozcestí Kunice",49.472533,16.532808
12526,"Lysice, Brněnská",49.44973,16.545254
12527,"Lysice, škola",49.457244,16.538209
12528,"Lysice, Štěchovská",49.450982,16.527408
12529,"Lysice, výzkum",49.456417,16.556818
12531,"Štěchov",49.451959,16.506836
12532,"Bedřichov",49.461608,16.46575
12534,"Brumov, rozc.3.0",49.465681,16.456082
12535,"Černovice",49.483054,16.424926
12536,"Kozárov",49.443447,16.458255
12537,"Kunčina Ves",49.447553,16.476239
12538,"Niva, u mlýna",49.440812,16.855585
12539,"Niva, čekárna",49.444099,16.852823
12540,"Otinoves, obecní úřad",49.421283,16.871167
12541,"Drahany",49.434565,16.89917
12542,"Bousín",49.455042,16.889737
12543,"Otinoves, horní konec",49.42641,16.870252
1256,"Komárov",49.175244,16.62151
1257,"Komenského náměstí",49.197069,16.602171
1258,"Komín, sídliště",49.226919,16.553423
12601,"Benešov",49.508993,16.767662
12602,"Benešov, Pavlov",49.510633,16.7809
12603,"Benešov, Pavlov, Dvůr",49.51534,16.791413
12604,"Benešov, škola",49.510317,16.776693
12605,"Benešov, ZD střed",49.503434,16.764196
12606,"Buková",49.508883,16.830467
12607,"Buková, horní zastávka",49.511759,16.824548
12608,"Kořenec",49.530331,16.755271
12609,"Kořenec, hor.zast.",49.529241,16.759881
1261,"Komín, smyčka",49.216183,16.556125
12610,"Kořenec, točna",49.531797,16.749272
12611,"Okrouhlá, Melkov, rozc.2.0",49.53474,16.728412
12612,"Protivanov",49.482344,16.8369
12613,"Protivanov, dol.zast.",49.48737,16.837736
12614,"Protivanov, hor.zast.",49.480137,16.836125
12615,"Protivanov, pila",49.476104,16.826375
12617,"Protivanov, tábor Metra",49.471394,16.814908
12618,"Ludíkov",49.45582,16.732787
12619,"Ludíkov, rozcestí",49.458203,16.736358
1262,"Konečného náměstí",49.204542,16.595656
12620,"Němčice",49.446616,16.713523
12621,"Němčice, Jednota",49.450263,16.717968
12622,"Němčice, Dendera",49.451719,16.720388
12623,"Suchý",49.481303,16.76194
12624,"Suchý, u rybníka",49.487335,16.76129
12625,"Valchov",49.471395,16.719147
12626,"Valchov, rozc.",49.471588,16.719758
12627,"Velenov",49.486975,16.732297
12628,"Žďárná",49.468497,16.754933
12629,"Boskovice, průmyslová zóna",49.496579,16.642359
1263,"Koniklecová",49.176526,16.558783
12631,"Žďárná, horní zastávka",49.468553,16.761956
12632,"Žďárná, škola",49.468172,16.760707
12633,"Boskovice, 17. listopadu",49.489357,16.66178
12634,"Boskovice, Kaufland",49.49056,16.64198
12635,"Boskovice, aut.st.",49.491553,16.653046
12636,"Boskovice, Boženy Němcové",49.493585,16.666403
12637,"Boskovice, Gagarinova",49.484847,16.67519
12638,"Boskovice, hřbitov",49.493698,16.677302
12640,"Boskovice, Na Výsluní",49.489517,16.66621
12641,"Boskovice, Hybešova",49.487828,16.671618
12642,"Boskovice, Komenského",49.48951,16.655473
12643,"Boskovice, Kosmonautů",49.485878,16.673002
12644,"Boskovice, Kras",49.491675,16.657418
12645,"Boskovice, Ludvíka Vojtěcha",49.484998,16.681002
12646,"Boskovice, Lidická",49.487012,16.665368
12647,"Boskovice, Mánesova",49.484955,16.644376
12648,"Boskovice, Mladkov",49.490615,16.619263
12649,"Boskovice, Mladkov, pekárna",49.490321,16.615458
12650,"Boskovice, nemocnice",49.491648,16.644473
12651,"Boskovice, Pod Oborou",49.486997,16.653119
12652,"Boskovice, Podhradí",49.483863,16.666407
12653,"Boskovice, Podlesí",49.482291,16.685418
12655,"Boskovice, Sokolská",49.49097,16.660723
12656,"Boskovice, STS",49.495901,16.646367
12657,"Boskovice, Sušilova ZŠ II",49.486201,16.663522
12658,"Boskovice, Svat.Čecha",49.492133,16.66902
12659,"Boskovice, podnikatelský park",49.498839,16.665738
1266,"Konopná",49.179978,16.621377
12660,"Boskovice, U Kapličky",49.483205,16.673843
12661,"Boskovice, v údolí",49.478417,16.650883
12662,"Chrudichromy",49.502565,16.63396
12663,"Jabloňany, rozc.",49.474603,16.594418
12665,"Krhov",49.463333,16.58325
12666,"Krhov, Pohodlí",49.462461,16.575173
12667,"Krhov, rozc. 1.0",49.468313,16.584207
12668,"Sebranice, horní zast.",49.498804,16.569253
12669,"Sebranice, u pošty",49.496763,16.575394
1267,"Kopce",49.205471,16.509312
12671,"Skalice nad Svitavou, ACHP",49.482396,16.600134
12676,"Skalice nad Svitavou, žel.st.",49.480338,16.608951
12679,"Svitávka, bytovky",49.509934,16.615209
12680,"Svitávka, MŠ",49.500869,16.600843
12681,"Svitávka, náměstí",49.502962,16.595599
12682,"Svitávka, Podhradí",49.508032,16.599474
12683,"Svitávka, Sasina",49.51374,16.585419
12684,"Svitávka, U labutě",49.506919,16.585819
12686,"Voděrady, nám.",49.480946,16.560205
12687,"Kunštát, U Bílého kříže",49.502953,16.523785
12688,"Kunštát, Hluboké u Kunštátu",49.495687,16.472747
12689,"Kunštát, kult.dům",49.506329,16.524172
12690,"Kunštát, nám.",49.507376,16.519676
12693,"Kunštát, Rudka",49.520422,16.514495
12694,"Kunštát, Rudka, hotel",49.516992,16.510802
12695,"Kunštát, Rudka, Na samotě",49.526268,16.520565
12696,"Kunštát, Rudka, prodejna",49.520395,16.512147
12697,"Kunštát, Sychotín",49.503769,16.509598
12698,"Kunštát, Sychotín, Grafitárna",49.508925,16.498938
12699,"Kunštát, Touboř",49.492955,16.495338
12700,"Horní Štěpánov, Nové Sady",49.558674,16.799326
12701,"Horní Štěpánov, Pohora",49.56121,16.755417
12702,"Horní Štěpánov, točna",49.547154,16.789813
12703,"Boskovice, Bačov, rozc.0.5",49.52298,16.64315
12704,"Knínice, Městečko",49.539509,16.6942
12705,"Knínice, horní zastávka",49.539653,16.702808
12706,"Letovice, Alb.Krejčího",49.545781,16.58555
12707,"Letovice, náměstí",49.547031,16.572057
12708,"Letovice, Borová",49.578215,16.558556
12709,"Letovice, Havírna",49.561698,16.57903
1271,"Körnerova",49.198216,16.619725
12710,"Letovice, Havírna rozcestí",49.561325,16.573375
12711,"Knínice, U Nádraží",49.535486,16.689927
12712,"Letovice, Jasinov",49.537627,16.530525
12713,"Letovice, Kladoruby",49.55524,16.608133
12714,"Letovice, Kochov",49.564555,16.611283
12715,"Letovice, Kovošrot",49.557233,16.576095
12716,"Letovice, Letostroj I",49.55486,16.575637
12717,"Letovice, Letostroj II",49.5692,16.563411
12718,"Letovice, Meziříčko",49.565837,16.556512
12719,"Letovice, Meziříčko, dol.konec",49.561093,16.568512
1272,"Kořískova",49.239392,16.58502
12720,"Letovice, Novičí, rozc.0.5",49.58411,16.591507
12721,"Letovice, papírny",49.549633,16.566906
12722,"Letovice, Podolí",49.530655,16.617452
12723,"Letovice, přehrada",49.553448,16.556195
12724,"Letovice, Slatinka",49.575185,16.570358
12725,"Letovice, Třebětín",49.558122,16.589022
12726,"Letovice, Třebětín, rozc.",49.558322,16.58323
12727,"Letovice, Tylex",49.535323,16.57919
12728,"Letovice, Tylex jídelna",49.536972,16.580704
12729,"Letovice, Tyršova parkoviště",49.543073,16.572313
1273,"Kosmonautů",49.167065,16.567734
12730,"Letovice, u hřiště",49.543523,16.57139
12732,"Letovice, u školy",49.544002,16.58357
12734,"Letovice, Zábludov",49.540563,16.546413
12735,"Letovice, Zboněk",49.522485,16.586399
12736,"Letovice, železniční stanice",49.556782,16.571476
12737,"Míchov",49.525263,16.613995
12738,"Pamětice",49.548285,16.646305
12739,"Pamětice, samota",49.547017,16.641407
12740,"Skrchov, točna",49.580142,16.552832
12741,"Sudice",49.529338,16.669178
12742,"Sudice, samota",49.517825,16.664367
12743,"Sudice, Semíč",49.51399,16.678513
12744,"Sudice, zast.",49.525527,16.66957
12745,"Šebetov",49.549173,16.709912
12746,"Skrchov, rozc.I",49.580147,16.551469
12747,"Skrchov, rozc.II",49.579143,16.553808
12748,"Šebetov, myslivna",49.544052,16.73393
12749,"Šebetov, na Křižnicích",49.536599,16.72414
1275,"Košuličova",49.164637,16.61005
12750,"Šebetov, u pily",49.555715,16.698138
12751,"Šebetov, u zámku",49.544337,16.71737
12752,"Vážany",49.530412,16.686023
12753,"Vísky",49.535672,16.62412
12754,"Vísky, u školy",49.54121,16.628907
12755,"Vranová",49.553098,16.524654
12756,"Vranová, rozc.0.2",49.556573,16.528542
12757,"Vranová, samota",49.55551,16.536349
12758,"Crhov",49.544699,16.436253
12759,"Hodonín u Kunštátu, rozcestí",49.519298,16.441355
12760,"Křtěnov",49.546783,16.419988
12762,"Lhota u Olešnice",49.542987,16.390853
12763,"Louka",49.527897,16.430135
12764,"Louka, Loucký Dvůr",49.532593,16.420752
12765,"Louka, Karlov",49.515151,16.412635
12766,"Olešnice, Lamberk",49.569197,16.409317
12767,"Olešnice, nám.",49.557881,16.422294
12768,"Olešnice, u lávky",49.554382,16.422187
12769,"Olešnice, závod",49.551247,16.420538
1277,"Kotlanova",49.209856,16.681364
12770,"Petrov",49.533803,16.489012
12771,"Petrov, rozc. 1.0",49.536579,16.499728
12773,"Prosetín, rozcestí",49.523515,16.413892
12774,"Rozseč nad Kunštátem, Horničí",49.537493,16.4561
12775,"Rozseč nad Kunštátem, rozcestí",49.528047,16.46396
12776,"Rozsíčka",49.552504,16.467263
12777,"Rozsíčka, U lípy",49.556027,16.474998
12778,"Sulíkov",49.546555,16.491536
12779,"Sulíkov, dolní zast.",49.543153,16.490049
12780,"Sulíkov, Vřesice",49.547288,16.503893
12781,"Horní Štěpánov",49.54946,16.790815
12782,"Horní Štěpánov, u rybníka",49.553243,16.792962
12783,"Rozseč nad Kunštátem",49.525618,16.462825
12784,"Rozseč nad Kunštátem, hájenka",49.521122,16.451018
12786,"Letovice, Babolky",49.58961,16.579372
12787,"Horní Štěpánov, rozcestí Skřípov",49.573763,16.793177
1279,"Kounicovy koleje",49.207752,16.583217
1280,"Kouty",49.264601,16.56513
12801,"Kunice",49.479539,16.491585
12802,"Lhota u Lysic",49.46854,16.495952
12804,"Brněnec, Mor.Chrastová, žel.st.",49.623651,16.52432
12805,"Lysice, škola točna",49.457263,16.536873
12806,"Lysice, Záoboří",49.465888,16.518342
12807,"Borotín",49.583038,16.676638
12808,"Brněnec, Chrastová Lhota",49.611199,16.532323
12809,"Brněnec, Mor.Chrastová, pošta",49.621767,16.52634
12810,"Cetkovice",49.578028,16.721211
12811,"Cetkovice, MŠ",49.579756,16.723793
12812,"Cetkovice, žel.st.",49.588443,16.705057
12813,"Deštná",49.613558,16.564775
12814,"Deštná, Rumberk",49.609133,16.563768
12815,"Letovice, Dolní Smržov",49.59073,16.556445
12816,"Letovice, Dolní Smržov, Jednota",49.59868,16.55645
12817,"Letovice, Chlum",49.593702,16.59544
12818,"Rozhraní, Vilémov",49.594594,16.538958
12819,"Rozhraní, železniční zastávka",49.601763,16.532682
1282,"Králova",49.211297,16.583386
12820,"Stvolová",49.589613,16.543348
12821,"Světlá",49.565448,16.718135
12822,"Uhřice",49.596328,16.735359
12823,"Uhřice, točna",49.594158,16.734925
12824,"Vanovice",49.567448,16.66557
12825,"Vanovice, Drválovice",49.565667,16.649975
12826,"Vanovice, zastávka",49.56451,16.671064
12827,"Velké Opatovice, Bezděčí",49.606324,16.615755
12828,"Velké Opatovice, Bezděčí, rozcestí",49.605642,16.608354
12829,"Velké Opatovice, Svárov",49.591727,16.618577
1283,"Královka",49.256043,16.586381
12830,"Bohuňov, náves",49.59764,16.464068
12831,"Horní Poříčí",49.586985,16.47689
12832,"Kněževes",49.587231,16.422775
12833,"Kněževes, rozc.1.0",49.582283,16.418832
12834,"Kněževes, Veselka",49.578012,16.449327
12835,"Křetín",49.563161,16.504478
12836,"Křetín, Dolní Poříčí",49.566043,16.509838
12837,"Křetín, škola",49.561967,16.500213
12838,"Lazinov",49.565158,16.521766
12839,"Lazinov, točna",49.564708,16.527658
12840,"Prostřední Poříčí",49.571628,16.491496
12841,"Prostřední Poříčí, host.u Dvořáků",49.576753,16.485446
12842,"Ústup",49.564672,16.465055
12843,"Nyklovice",49.604472,16.347493
12844,"Rovečné",49.577878,16.363352
12845,"Rovečné, rozcestí",49.58781,16.371897
12846,"Velké Tresné, rozc.",49.583003,16.384695
12848,"Úsobrno, hostinec",49.59245,16.761761
12849,"Úsobrno, závod",49.58495,16.765969
12850,"Úsobrno, nové domy",49.579562,16.770024
12851,"Úsobrno, pila",49.59681,16.761827
12852,"Brněnec, prodejna",49.628117,16.520918
12853,"Brněnec, mlýn",49.629743,16.520828
12854,"Velké Tresné",49.574159,16.381681
12855,"Velké Tresné, závod",49.56907,16.386339
1286,"Královo Pole, nádraží",49.230183,16.59582
1288,"Královopolská strojírna",49.224012,16.607284
12902,"Horní Smržov",49.617102,16.57726
12903,"Horní Smržov, Jednota",49.618461,16.581972
12905,"Jaroměřice, náves",49.625363,16.751822
12907,"Jaroměřice, hřiště",49.627601,16.746418
12909,"Jevíčko, nám.",49.632649,16.711559
1291,"Krásného",49.190552,16.649729
12910,"Jaroměřice, žel.st.",49.63025,16.72841
12911,"Malá Roudka",49.602052,16.646302
12912,"Malá Roudka, rozc.0.5",49.601828,16.6473
12913,"Malá Roudka, Skočova Lhota",49.606455,16.650608
12914,"Roubanina",49.615423,16.593686
12915,"Roubanina, Roubanská",49.614983,16.608969
12916,"Slatina, Na Červené",49.624497,16.60445
12917,"Slatina, náves",49.630246,16.607803
12919,"Velké Opatovice, aut.st.",49.610978,16.673748
1292,"Krejčího",49.177588,16.691202
12920,"Velké Opatovice, Brťov",49.617423,16.640337
12921,"Velké Opatovice, Korbelova Lhota",49.617058,16.622961
12922,"Velké Opatovice, sídliště",49.614464,16.679971
12923,"Velké Opatovice, Velká Roudka",49.596382,16.658592
12924,"Velké Opatovice, Zádvoří",49.610633,16.664929
12925,"Velké Opatovice, závod",49.611699,16.685494
12926,"Bystré, městský úřad",49.628215,16.34728
12927,"Jevíčko, Brněnská",49.628988,16.711722
1293,"Krematorium",49.172576,16.588325
12930,"Březina, kaple",49.65112,16.61972
12931,"Jaroměřice, Nový Dvůr",49.605428,16.762193
12932,"Jaroměřice, Nadevsí",49.623045,16.756738
12934,"Březová nad Svitavou, stolárna",49.638606,16.520189
12935,"Březová nad Svitavou, náměstí",49.645113,16.517187
12936,"Březová nad Svitavou, železniční stanice",49.633399,16.520352
12939,"Slatina, u hasičárny",49.629181,16.607972
12940,"Velké Opatovice, rozcestí",49.614778,16.681521
1296,"Kristenova",49.22102,16.554302
1297,"Kroměřížská",49.178648,16.688698
1298,"Kronova",49.25131,16.588596
1300,"Křehlíkova",49.174817,16.685206
1301,"Křídlovická",49.185293,16.60265
1302,"Křivánkovo náměstí",49.20703,16.487557
1307,"Křížkovského",49.187379,16.587186
1308,"Kšírova",49.171538,16.615758
13101,"Česká, Hlavní",49.281169,16.565213
13103,"Česká, křižovatka",49.28294,16.565352
13105,"Česká, Nádavky",49.27456,16.567823
13107,"Česká, UP závody",49.288799,16.561525
13109,"Česká, železniční stanice",49.284324,16.567388
1311,"Kubelíkova",49.212071,16.698811
13114,"Jinačovice, Chaloupky",49.264602,16.527256
13115,"Jinačovice",49.267725,16.527344
13116,"Kuřim, golfové hřiště",49.278706,16.526126
13117,"Kuřim, škola Jungmannova",49.304197,16.528445
13118,"Kuřim, fara",49.296795,16.526584
1312,"Kubíčkova",49.221263,16.519845
13120,"Kuřim, rozcestí 2.0",49.317856,16.551692
13121,"Kuřim, Díly pod Sv. Jánem",49.296906,16.547685
13122,"Kuřim, Podlesí",49.305021,16.556748
13123,"Kuřim, kulturní dům",49.307694,16.531809
13124,"Kuřim, Prefa",49.318359,16.546958
13125,"Kuřim, Popkova",49.304662,16.531029
13126,"Kuřim, Podlesí, rozc.",49.305559,16.554872
13127,"Kuřim, TOS",49.313448,16.540448
13128,"Kuřim, poliklinika",49.309782,16.534662
13129,"Kuřim, TE",49.314359,16.547182
1313,"Kuldova",49.201308,16.634429
13130,"Kuřim, zámek",49.29735,16.524289
13131,"Kuřim, Prefa rozcestí",49.316222,16.548481
13133,"Kuřim, sokolovna",49.298166,16.539216
13136,"Moravské Knínice",49.293165,16.503428
13137,"Moravské Knínice, Podhájí",49.292659,16.477428
13138,"Rozdrojovice, Na dědině",49.25517,16.510943
13139,"Rozdrojovice, Obecnice",49.252937,16.512518
13140,"Rozdrojovice, rekreační středisko",49.248168,16.519248
13141,"Rozdrojovice, rozcestí přehrada",49.250282,16.515923
13143,"Kuřim, železniční stanice",49.300508,16.534015
13146,"Rozdrojovice, Na Březině",49.254364,16.516596
13151,"Lelekovice, náves",49.291232,16.578953
13153,"Lelekovice, škola",49.290028,16.575464
13155,"Lelekovice, u Hrazdírů",49.287462,16.572706
13157,"Lelekovice, u kříže",49.290172,16.587318
1316,"Kulkova",49.211699,16.648437
13164,"Kuřim, Záhoří",49.30691,16.545475
13165,"Kuřim, Knínická",49.295245,16.523051
1317,"Kupkova",49.236324,16.62768
13181,"Vranov, hřbitov",49.30578,16.622561
13183,"Vranov, křižovatka",49.31023,16.612362
13185,"Vranov, myslivna",49.308411,16.621848
13187,"Vranov, smyčka",49.311112,16.612
1319,"K terminálu",49.161508,16.612183
13191,"Brno, Hrad Veveří",49.254541,16.461517
13192,"Brno, Jelenice",49.25071,16.485159
13193,"Brno, Kozí horka",49.236499,16.504572
13194,"Brno, Lávka Pod Hradem",49.260157,16.465291
13195,"Brno, Obora",49.255526,16.476006
13197,"Brno, Rokle",49.245682,16.496135
1320,"Květná",49.193384,16.576691
13201,"Čebín, náměstí",49.312885,16.47745
13202,"Čebín, rozcestí",49.312802,16.48469
13204,"Čebín, sídliště",49.316765,16.473625
13205,"Čebín, vápenka",49.318149,16.491675
13206,"Čebín, železniční stanice",49.319554,16.466104
13207,"Drásov, závod",49.32729,16.476888
13208,"Drásov, most",49.337675,16.480024
13209,"Drásov, náměstí",49.331625,16.478288
13210,"Malhostovice, náměstí",49.333385,16.501989
13211,"Malhostovice, Nuzířov",49.343685,16.521873
13212,"Malhostovice, rozcestí",49.331455,16.498112
13214,"Brno, Nové Dvory",49.251482,16.450321
13215,"Brno, U Matky Boží",49.254193,16.453256
13217,"Chudčice",49.287531,16.456819
13218,"Chudčice, Delník",49.292693,16.454401
13219,"Chudčice, na hrázi",49.283035,16.455596
1322,"Labská",49.171431,16.559511
13224,"Veverská Bítýška, přístav",49.275418,16.452167
13227,"Veverská Bítýška, Vápenice",49.244957,16.44598
13228,"Drásov, kostel",49.332349,16.477896
13229,"Čebín, Drásovská",49.316928,16.474565
1323,"Langrova",49.179926,16.680928
13251,"Hvozdec",49.247071,16.426337
1326,"Laštůvkova",49.220367,16.525725
13261,"Veverská Bítýška, hájovna Na Hlince",49.251531,16.429154
13263,"Veverská Bítýška, rozcestí Mečkov",49.26105,16.443675
13265,"Veverská Bítýška, náměstí",49.276043,16.436098
13269,"Veverská Bítýška, sídliště",49.269902,16.433448
1328,"Lerchova",49.198723,16.583664
13301,"Březina",49.321472,16.422928
13302,"Heroltice",49.311648,16.412858
13303,"Heroltice, rozcestí",49.319203,16.416328
13304,"Hluboké Dvory",49.382973,16.514133
13306,"Hradčany, železniční stanice",49.333342,16.438125
13307,"Hradčany",49.328233,16.441969
13308,"Lomnička, obecní úřad",49.367903,16.429825
13309,"Lomnička, u Hamru",49.365984,16.425075
1331,"Lesná, nádraží",49.220359,16.628543
13310,"Předklášteří, obecní úřad",49.352526,16.403233
13311,"Předklášteří, papírna",49.351218,16.408248
13312,"Předklášteří, Zetor šroubárna",49.363236,16.396185
13313,"Rohozec",49.390107,16.482793
13314,"Sentice",49.314147,16.45297
13315,"Sentice, obecní úřad",49.311867,16.44775
13316,"Sentice, rozcestí",49.32308,16.456849
13317,"Skalička, hostinec",49.358295,16.514417
13318,"Skalička, chaloupky",49.357481,16.521579
1332,"Lesní",49.185528,16.5647
13320,"Tišnov, čerpací stanice",49.342135,16.420179
13321,"Tišnov, Hájek, Stanovisko rozcestí",49.364978,16.453314
13322,"Tišnov, Hájek, rozcestí",49.372833,16.465503
13324,"Tišnov, Jamné",49.375989,16.46768
13326,"Tišnov, Kukýrna",49.352511,16.425461
13327,"Tišnov, Nádražní",49.344912,16.422168
13329,"Tišnov, Pejškov",49.316552,16.378515
1333,"Lesní školka",49.263118,16.625941
13331,"Tišnov, Riegrova",49.349617,16.426634
13332,"Tišnov, sídliště Klucanina",49.340373,16.432865
13333,"Tišnov, Trnec",49.336272,16.441295
13334,"Tišnov, železniční stanice",49.346805,16.419219
13335,"Unín",49.382742,16.492227
13337,"Vohančice",49.321844,16.394478
13338,"Vohančice, Závist",49.334312,16.400098
13339,"Všechovice",49.357503,16.494357
1334,"Letiště - logistický areál",49.156625,16.698627
13340,"Všechovice, rozcestí",49.35369,16.496828
13341,"Železné, obec",49.360132,16.450265
13342,"Železné, u Vitaru",49.356568,16.443518
13343,"Braníškov",49.294719,16.342831
13344,"Lažánky, hotel",49.281054,16.391306
13345,"Lažánky, Holasice, rozcestí",49.276392,16.405497
13346,"Lažánky",49.278741,16.388185
13347,"Lažánky, šachty",49.280904,16.373445
13348,"Maršov",49.28342,16.360229
13349,"Maršov, Vobůrka",49.28448,16.354984
1335,"Letiště - služební vstup",49.155635,16.691132
13350,"Tišnov, Lomnická",49.355382,16.428726
13351,"Tišnov, Rybníček",49.343079,16.42962
13352,"Tišnov, Nový hřbitov",49.350648,16.434651
1336,"Lesnická",49.212767,16.617747
1337,"Letiště Tuřany - terminál",49.15483,16.692439
1338,"Letovická",49.245895,16.587594
1339,"Letecká",49.197708,16.695849
13401,"Borač",49.400717,16.360932
13402,"Borač, Vrby",49.396655,16.365591
13403,"Lomnice, Brusná, rozcestí",49.39256,16.408758
13404,"Lomnice, Řepka",49.386294,16.412417
13405,"Dolní Loučky, hájenka",49.349228,16.347001
13406,"Dolní Loučky, Chytálky, rozcestí",49.345551,16.341483
13407,"Dolní Loučky, Mezihoří",49.36063,16.361338
13409,"Dolní Loučky, Střemchoví",49.36206,16.369694
1341,"Libušina třída",49.197798,16.54865
13410,"Dolní Loučky, škola",49.361335,16.354375
13411,"Dolní Loučky, železniční stanice",49.357389,16.347245
13412,"Horní Loučky, obecní úřad",49.366993,16.341324
13413,"Kaly",49.377835,16.352718
13414,"Kaly, Zahrada, rozcestí",49.37211,16.364934
13415,"Kuřimské Jestřabí",49.345121,16.312082
13416,"Kuřimská Nová Ves",49.344115,16.298895
13418,"Lomnice, internát",49.411482,16.419356
13419,"Lomnice, náměstí",49.403439,16.414087
1342,"Libušino údolí",49.195704,16.555315
13420,"Lomnice, škola",49.40094,16.408116
13421,"Lomnice, Družstevní",49.41019,16.408295
13422,"Ochoz u Tišnova",49.427442,16.393607
13423,"Pernštejnské Jestřabí, Jilmoví, rozcestí",49.393997,16.329382
13424,"Pernštejnské Jestřabí, rozcestí",49.401448,16.323877
13425,"Řikonín, železniční stanice",49.365663,16.307352
13426,"Skryje",49.392942,16.311338
13427,"Skryje, Arka a.s.",49.380247,16.317942
13428,"Skryje, Boudy",49.384268,16.312363
13429,"Skryje, rozcestí",49.373298,16.315118
1343,"ARENA BRNO",49.191453,16.576241
13430,"Strhaře",49.435563,16.436468
13431,"Strhaře, rozcestí",49.426007,16.426024
13432,"Strhaře, Žleby, kamenolom",49.43956,16.42595
13433,"Strhaře, Žleby, pila",49.429936,16.428153
13434,"Synalov",49.432263,16.41387
13435,"Synalov, rozcestí",49.420153,16.398867
13436,"Šerkovice",49.385973,16.429794
13437,"Štěpánovice, horní konec",49.379126,16.379448
13438,"Štěpánovice, obecní úřad",49.372419,16.388198
13439,"Tišnovská Nová Ves",49.383768,16.293142
13440,"Tišnovská Nová Ves, rozcestí",49.367938,16.318267
13441,"Újezd u Tišnova",49.365685,16.323372
13442,"Újezd u Tišnova, závod",49.361347,16.331313
13443,"Žďárec, Ostrov",49.374226,16.279618
13444,"Deblín, myslivna",49.3117,16.32996
13445,"Deblín, obecní úřad",49.320404,16.345811
13446,"Deblín, Pod cihelnou",49.322102,16.350949
13447,"Deblín, zemědělské družstvo",49.318813,16.337792
13448,"Katov",49.332765,16.280015
13449,"Křižínkov",49.324868,16.26985
1345,"Lísky",49.219896,16.549075
13450,"Lubné",49.353712,16.27528
13452,"Nelepeč, Žernůvka",49.333125,16.387765
13453,"Níhov",49.342059,16.258953
13454,"Níhov, železniční stanice",49.336299,16.270162
13455,"Kuřimská Nová Ves, Prosatín, rozcestí",49.33912,16.294157
13457,"Svatoslav, hájenka",49.311658,16.315907
13458,"Svatoslav, horní konec",49.304095,16.312546
13459,"Svatoslav, obecní úřad",49.301607,16.308603
1346,"Líšeň, hřbitov",49.217477,16.702717
13460,"Úsuší",49.334512,16.3557
13461,"Úsuší, Čížky",49.32803,16.366757
13462,"Štěpánovice",49.373098,16.389903
13463,"Borač, žel. st.",49.400728,16.36627
13464,"Prudká zastávka",49.419195,16.367361
13465,"Lomnice, Brusná",49.393247,16.399719
13467,"Pernštejnské Jestřabí, Maňová",49.415564,16.332006
13468,"Dolní Loučky, orlovna",49.361884,16.353911
1347,"Líšeňská",49.197581,16.665217
1348,"Loosova",49.231973,16.619445
1350,"Macháčkova",49.206113,16.701931
13501,"Běleč",49.433229,16.3843
13502,"Běleč, dolní konec",49.428424,16.37596
13503,"Běleč, Křeptov",49.440602,16.378132
13504,"Doubravník, náměstí",49.424575,16.351759
13505,"Doubravník, Prudká, rozcestí",49.421985,16.370048
13506,"Doubravník, železniční stanice",49.427615,16.352198
13507,"Drahonín",49.413092,16.277102
13508,"Olší",49.421758,16.291287
13509,"Olší, Klokočí, rozcestí",49.412668,16.306297
1351,"Mácova",49.265805,16.569125
13510,"Olší, Litava",49.410388,16.312237
13511,"Borovník",49.355849,16.229482
13512,"Rojetín, rozcestí",49.370438,16.254441
13513,"Rozseč",49.360127,16.221967
13514,"Vidonín",49.379702,16.221743
13515,"Vidonín, rozcestí",49.3757,16.22014
13516,"Vratislávka",49.386806,16.248537
13517,"Žďárec, náměstí",49.379579,16.267219
13518,"Žďárec, u kostela",49.376253,16.264473
1352,"Makovského náměstí",49.217902,16.576709
13520,"Nedvědice, železniční stanice",49.454427,16.337335
13521,"Rojetín",49.367423,16.257195
13522,"Nedvědice, náměstí",49.457083,16.334446
13524,"Nedvědice, u zdravotního střediska",49.454089,16.330867
13525,"Nedvědice, rozcestí Sejřek",49.453234,16.336057
13526,"Sejřek, Bor, rozcestí 1,5 km",49.432263,16.289314
1353,"Malá Klajdovka",49.19913,16.662909
13531,"Černvír",49.444866,16.346458
13532,"Nedvědice, Pernštejn, u studánky",49.449706,16.310105
13533,"Nedvědice, Pernštejn, u mostku",49.452656,16.325211
13534,"Doubravník, Štěpnice",49.419008,16.351986
13535,"Nedvědice, Pernštejn, hrad",49.453657,16.313606
1354,"Malá",49.149332,16.621835
1355,"Malinová",49.25931,16.623807
1356,"Malečkova",49.185749,16.692664
1357,"Malinovského náměstí",49.195567,16.613721
1358,"Maloměřický most",49.215462,16.643389
13601,"Heřmanov",49.37985,16.181983
13602,"Milešín",49.368178,16.202088
13603,"Nová Ves",49.390687,16.196008
13604,"Radňoves",49.388153,16.214103
13605,"Rožná, železniční stanice",49.473236,16.244977
13606,"Střítež, hájenka",49.433158,16.275532
13607,"Střítež, rozcestí Moravecké Pavlovice",49.434511,16.264074
13608,"Moravecké Pavlovice",49.427958,16.256271
13609,"Střítež",49.440949,16.258227
1361,"Mariánské náměstí",49.176588,16.622541
13610,"Bukov, rozcestí",49.461266,16.227242
13611,"Bukov",49.454931,16.22425
13612,"Bukov, šachta",49.463568,16.219284
13613,"Strážek, Moravecké Janovice, rozcestí",49.405719,16.228902
13615,"Strážek, Meziboří, rozcestí",49.415037,16.222159
13616,"Strážek, Krčma",49.419251,16.217208
13617,"Strážek, rozcestí Radkovičky",49.427355,16.202533
13618,"Strážek, u kostela",49.439073,16.195103
13619,"Strážek",49.441042,16.192107
1362,"Mariánské údolí",49.203324,16.716063
13622,"Věžná, rozcestí Bor",49.445998,16.287856
13623,"Věžná",49.458687,16.264848
13624,"Věžná, Jabloňov",49.46124,16.255573
13626,"Býšovec, Smrček",49.458554,16.306015
13627,"Býšovec",49.475588,16.288634
13628,"Věchnov, rozcestí lom",49.495274,16.28567
13629,"Věchnov, u rybníka",49.498436,16.279772
13630,"Bystřice nad Pern., rozcestí Věchnov",49.513681,16.260901
13638,"Rožná, Jednota",49.477994,16.238521
13639,"Rožná, Josefov, rozcestí",49.483677,16.24628
13640,"Rožná, Zlatkov, u rybníka",49.489161,16.255741
1366,"Marie Pujmanové",49.198197,16.573544
1367,"Maříkova",49.259325,16.579787
1368,"Masarova",49.206997,16.677557
13701,"Bystřice nad Pern., železniční stanice",49.513545,16.24749
13702,"Dolní Rožínka, dílny",49.471842,16.209322
13703,"Dolní Rožínka, aut.st.",49.475509,16.207128
1371,"Náměstí Míru",49.202138,16.581754
13714,"Bystřice nad Pern., Černý vršek",49.52848,16.243963
13715,"Bystřice nad Pern., DPS",49.525302,16.250398
13716,"Bystřice nad Pern., gymnázium",49.518187,16.259108
13717,"Bystřice nad Pern., hřbitov",49.525823,16.255462
13718,"Bystřice nad Pern., kotelna",49.519362,16.262274
13719,"Bystřice nad Pern., kulturní dům",49.523275,16.25398
1372,"Masná",49.191155,16.625678
13720,"Bystřice nad Pern., lihovar",49.521609,16.260784
13721,"Bystřice nad Pern., Masarykovo náměstí",49.523433,16.260112
13722,"Bystřice nad Pern., poliklinika",49.524697,16.262204
13723,"Bystřice nad Pern., Rovinky",49.527434,16.245654
13724,"Bystřice nad Pern., sídliště I",49.516207,16.260727
13725,"Bystřice nad Pern., sídliště II",49.527033,16.250829
13726,"Bystřice nad Pern., u mostu",49.521673,16.267837
13727,"Bystřice nad Pern., u závodu",49.5129,16.252244
13728,"Bystřice nad Pern., Voldán",49.523411,16.266288
13729,"Bystřice nad Pern., zahradnictví",49.525743,16.259495
13730,"Bystřice nad Pern., Bratrušín",49.514675,16.274628
13731,"Bystřice nad Pern., Domanín",49.545506,16.228498
13732,"Bystřice nad Pern., Domanín, Jednota",49.541648,16.234393
13733,"Bystřice nad Pern., Domanín, rozcestí",49.5292,16.245992
13734,"Bystřice nad Pern., Domanín, U Šejnohů",49.538663,16.238029
13735,"Bystřice nad Pern., Domanínek",49.528545,16.240941
13736,"Bystřice nad Pern., Domanínek, rozcestí",49.529657,16.24022
13739,"Bystřice nad Pern., Výrobní",49.513852,16.244187
13740,"Bystřice nad Pern., Novoměstská",49.528048,16.24975
13742,"Bystřice nad Pern., aut. nádr.",49.526293,16.260561
1376,"Medlánky",49.240507,16.5737
1377,"Medlánky, škola",49.238314,16.578217
1378,"Mendlovo náměstí",49.190191,16.593789
13801,"Rozsochy, železniční stanice",49.537385,16.195122
1381,"Merhautova",49.214925,16.627555
1382,"Mikulčická",49.178346,16.684273
1383,"Mikulovská",49.205906,16.665328
1384,"Mifkova",49.207263,16.692381
1386,"Mírová",49.1765,16.632395
1387,"Modřická",49.137919,16.616375
1388,"Mojmírovo náměstí",49.226316,16.597911
1389,"Modřická cihelna",49.137391,16.603427
1391,"Mokrá Hora",49.258258,16.593655
1392,"Molákova",49.212738,16.686949
1393,"Moravanská",49.14275,16.602546
1396,"Moravanské lány",49.149447,16.6014
1397,"Moravské náměstí",49.199416,16.608437
1398,"Mostecká",49.206951,16.627329
1399,"Moskalykova",49.231441,16.608049
1400,"Mozolky",49.213616,16.574845
14007,"Ivančice, Řeznovice, hřbitov",49.084376,16.314684
14009,"Branišovice, Kanada",48.966052,16.430278
1401,"Mošnova",49.196198,16.640931
14010,"Branišovice, pošta",48.961796,16.428626
14011,"Branišovice, státní silnice",48.959135,16.429386
14012,"Kubšice, křižovatka",49.001998,16.408543
14014,"Loděnice, křižovatka Šumická",49.011128,16.458541
14015,"Loděnice, obecní úřad",49.011484,16.463219
14016,"Loděnice, škola",49.011772,16.468037
14018,"Olbramovice, prodejna",48.989883,16.395776
14019,"Olbramovice, restaurace",48.9842,16.400764
14022,"Šumice, škola",48.991759,16.437271
14023,"Trnové Pole",48.945566,16.409677
14024,"Trnové Pole, rozcestí",48.955231,16.413587
14025,"Vedrovice, obecní úřad",49.019952,16.37692
14026,"Vedrovice, u lípy",49.021731,16.380867
1403,"Mutěnická",49.203471,16.654843
14034,"Lesní Jakubov",49.205913,16.243831
14036,"Moravský Krumlov, Lerchov",49.049697,16.296095
1406,"Muzeum dopravy",49.201411,16.694503
1407,"Myslivecký stadion",49.241196,16.609644
1408,"Myslivna",49.187665,16.552103
1409,"Myslivní",49.190456,16.543482
14101,"Ostopovice, Branky",49.15994,16.548608
14102,"Ostopovice, Lipová",49.163052,16.536032
14103,"Ostopovice, U Kaple",49.161085,16.545654
14104,"Ostopovice, rozcestí",49.163089,16.542837
14105,"Ostopovice, smyčka",49.164405,16.540807
14106,"Troubsko, kaplička",49.168968,16.511527
14107,"Troubsko, Kovopodnik",49.175824,16.511609
14108,"Troubsko, Lísek",49.171815,16.480037
14109,"Troubsko, obecní úřad",49.170909,16.506305
1411,"Mýtná",49.17511,16.582244
14110,"Troubsko, U dráhy",49.16364,16.526788
14111,"Omice, Kývalka",49.190014,16.451805
14112,"Omice, Kývalka, spojovací",49.190405,16.456031
14113,"Omice, samoobsluha",49.16998,16.451412
14114,"Omice, sokolovna",49.171992,16.454951
14117,"Popůvky, Náves",49.178184,16.487946
14119,"Střelice, dolní železniční stanice",49.156269,16.505429
1412,"Na kovárně",49.25382,16.620526
14120,"Střelice, nákupní středisko",49.152768,16.49396
14121,"Střelice, obecní úřad",49.152648,16.503053
14122,"Střelice, rozcestí Radostice",49.150463,16.46443
14123,"Ostrovačice, Automotodrom",49.201089,16.445464
14124,"Střelice, Vršovice",49.153443,16.480213
14126,"Troubsko, Nová",49.166762,16.518608
14129,"Brno, Masarykův okruh",49.204702,16.44722
14130,"Brno, Tribuna B",49.20916,16.453081
14131,"Ostrovačice, hájenka Na Šípu",49.206408,16.438228
14133,"Popůvky, Vintrovna",49.181486,16.490773
14138,"Střelice, Zámeček",49.151699,16.470175
1414,"Nadační",49.245169,16.570704
1415,"NC Královo Pole",49.217571,16.6071
1416,"Nálepkova",49.208794,16.55232
14160,"Troubsko, Veselka",49.176501,16.503807
1417,"Náměstí 28. dubna",49.225751,16.531631
1418,"Náměstí 28. října",49.201362,16.613655
14201,"Ořechov, Jeřábkova",49.108913,16.512492
14202,"Ořechov, Kerendov",49.117391,16.525788
14203,"Ořechov, kravín",49.108647,16.496457
14204,"Ořechov, obecní úřad",49.111516,16.518333
14205,"Ořechov, orlovna",49.111078,16.526128
14206,"Ořechov, tábor",49.110182,16.539924
14207,"Ořechov, zdravotní středisko",49.110484,16.527074
14208,"Prštice, rozcestí Hlína",49.113503,16.468491
14209,"Prštice, u zámku",49.118024,16.473363
1421,"Náměstí Karla IV.",49.206545,16.694703
14210,"Silůvky",49.105948,16.468237
14211,"Radostice, koupaliště",49.138151,16.467962
14212,"Radostice, Mlýnská silnice",49.135629,16.47497
14213,"Radostice, kostel",49.131522,16.477831
14214,"Radostice, u Žemličků",49.143552,16.467291
14215,"Ostrovačice, náměstí Viléma Mrštíka",49.21068,16.409513
14216,"Ostrovačice, Veveří",49.213744,16.408162
14217,"Říčany",49.214791,16.394854
14218,"Říčany, ZD",49.210156,16.396065
14219,"Říčky",49.232504,16.356725
1422,"Náměstí Republiky",49.211009,16.633815
14220,"Veverské Knínice",49.236629,16.403758
14221,"Veverské Knínice, horní konec",49.237818,16.396128
14222,"Veverské Knínice, rozcestí Pohádka Máje",49.227455,16.418309
14223,"Veverské Knínice, ZOD Veveří",49.231958,16.409008
14224,"Babice u Rosic",49.171092,16.359149
14225,"Rosice, ADOSA",49.18404,16.370951
14226,"Rosice, Brněnská",49.182939,16.39825
14227,"Rosice, Husova",49.182042,16.398904
14228,"Rosice, kamenolom",49.204877,16.341603
14229,"Rosice, Kamínky",49.184752,16.382659
1423,"Náměstí Svobody",49.195661,16.608003
14230,"Rosice, Litostrovská",49.187493,16.375703
14231,"Rosice, Okrouhlík",49.200506,16.363225
14232,"Rosice, Říčanská",49.185833,16.385113
14233,"Rosice, STK",49.184718,16.404969
14234,"Rosice, Těstárny",49.178804,16.384113
14235,"Rosice, Trávníky",49.183503,16.390776
14237,"Tetčice, Neslovická",49.166335,16.401901
14238,"Tetčice, žel. st.",49.172064,16.408677
14239,"Zastávka, Dům zdraví",49.186899,16.361801
14241,"Zastávka, Kopečky",49.196112,16.359186
14242,"Zastávka, železniční stanice",49.187458,16.359274
14244,"Ostrovačice, Říčanská",49.212743,16.406495
1426,"Náměstí Svornosti",49.215382,16.582495
1428,"Nemocnice u sv. Anny",49.191497,16.59903
1429,"Nemocnice Bohunice",49.175846,16.567196
1430,"Nemocnice Milosrdných bratří",49.183691,16.595021
14301,"Domašov",49.245402,16.343654
14302,"Domašov, cestmistrovství",49.257233,16.311991
14303,"Domašov, Nový konec",49.240332,16.347683
14304,"Domašov, u hřbitova",49.247189,16.343496
14305,"Javůrek",49.254545,16.360777
14306,"Lesní Hluboké",49.268358,16.310195
14307,"Lesní Hluboké, motel 9 křížů",49.266652,16.296542
14308,"Litostrov",49.227062,16.334205
14309,"Rudka",49.241582,16.330561
1431,"Nerudova",49.206275,16.595414
14310,"Rudka, u křížku",49.243468,16.335031
14311,"Zálesná Zhoř, rozcestí",49.261911,16.301337
14312,"Příbram na Moravě, Brodek",49.198605,16.304023
14313,"Příbram na Moravě, Jednota",49.194501,16.302344
14314,"Příbram na Moravě, rozc. 2.0",49.204668,16.3103
14315,"Zbraslav",49.221018,16.295808
14316,"Zbraslav, Březina",49.221818,16.282843
14318,"Zbraslav, Malinovského",49.217576,16.298769
14319,"Hlína",49.114511,16.427406
14320,"Hlína, samota",49.123142,16.42101
14321,"Kratochvilka",49.157053,16.376949
14322,"Lukovany, na dolině",49.162935,16.299698
14323,"Lukovany, točna",49.163362,16.295969
14324,"Lukovany, u kapličky",49.163293,16.302804
14325,"Neslovice",49.142578,16.387408
14326,"Neslovice, škola",49.145908,16.387286
14327,"Oslavany, Padochov, restaurace",49.135068,16.354682
14328,"Oslavany, Padochov, rozcestí",49.13273,16.352483
14329,"Oslavany, Padochov, závod",49.137143,16.348372
1433,"Neumannova",49.19659,16.577965
14330,"Zakřany, Jednota",49.168718,16.331429
14331,"Zakřany, obecní úřad",49.170329,16.325743
14332,"Zakřany, ZD",49.169187,16.319818
14333,"Zbýšov, Anenská",49.148768,16.350715
14334,"Zbýšov, internát",49.161724,16.343861
14335,"Zbýšov, Jednota",49.161451,16.342754
14336,"Zbýšov, městský úřad",49.154663,16.349258
14337,"Zbýšov, Poustka",49.158587,16.346868
14338,"Zbýšov, Sička",49.166856,16.353205
14339,"Dolní Kounice, Masarykovo nám.",49.070302,16.464113
1434,"Vozovna Husovice",49.208658,16.630046
14340,"Dolní Kounice, Rybárna",49.071381,16.46911
14341,"Dolní Kounice, Skalní",49.070306,16.456692
14342,"Dolní Kounice, Trboušanská",49.06613,16.468147
14343,"Jezeřany-Maršovice, Jezeřany",49.029247,16.436871
14344,"Jezeřany-Maršovice, škola",49.033484,16.431745
14345,"Jezeřany-Maršovice, točna",49.036405,16.427709
14346,"Kupařovice",49.0421,16.48738
14347,"Moravské Bránice, U Mašinhózu",49.083147,16.433545
14348,"Moravské Bránice, škola",49.081528,16.438244
14349,"Moravské Bránice, u hřbitova",49.086134,16.438924
1435,"Novomoravanská",49.153104,16.600346
14350,"Moravské Bránice, žel. st.",49.084816,16.428949
14351,"Nové Bránice",49.070355,16.443385
14352,"Nové Bránice, rozc.",49.078247,16.439327
14353,"Nové Bránice, škola",49.073371,16.439374
14354,"Pravlov",49.054553,16.486771
14355,"Pravlov, kulturní dům",49.054214,16.480114
14356,"Pravlov, rozc.",49.053006,16.479074
14357,"Trboušany",49.049142,16.46398
14358,"Trboušany, rozc.",49.044838,16.471218
14359,"Zbraslav, u kostela",49.22247,16.29316
1436,"Nové sady",49.190126,16.60925
14360,"Dolní Kounice, Nové Kounice",49.078193,16.442358
14361,"Dolní Kounice, u Machových",49.074762,16.447513
14364,"Vysoké Popovice",49.182835,16.287004
1438,"Novolíšeňská",49.20182,16.670471
14401,"Křoví, pila",49.314018,16.248835
14402,"Křoví, rozcestí",49.31688,16.260866
14403,"Přibyslavice",49.278604,16.260053
14404,"Přibyslavice, motorest 9 křížů",49.27157,16.281158
14405,"Přibyslavice, obecní úřad",49.279741,16.262974
14406,"Přibyslavice, Radoškov",49.283997,16.302503
14407,"Přibyslavice, Radoškov, Spálený mlýn",49.294797,16.288857
14408,"Velká Bíteš, PBS",49.299826,16.213894
14409,"Velká Bíteš, BDS",49.296472,16.220656
1441,"Obecká",49.21441,16.701682
14410,"Velká Bíteš, cihelna",49.284464,16.24191
14412,"Velká Bíteš, náměstí",49.28843,16.226807
14413,"Velká Bíteš, Pánov, rozcestí",49.312502,16.283915
14414,"Velká Bíteš, samota",49.303318,16.232853
14415,"Velká Bíteš, Vlkovská",49.293684,16.22381
14416,"Velká Bíteš, škola",49.290697,16.227114
14417,"Křoví, I",49.31023,16.263142
14418,"Křoví, II",49.305978,16.264135
14419,"Velká Bíteš, Hybešova",49.283225,16.230586
1442,"Obilní trh",49.198122,16.597847
14420,"Velká Bíteš, Košíkov",49.26883,16.238987
14421,"Velká Bíteš, Ludvíkov",49.254637,16.257732
14423,"Hluboké",49.225953,16.22696
14424,"Újezd u Rosic, samota",49.222003,16.238089
14425,"Stanoviště",49.237583,16.255712
14426,"Stanoviště, rozc. 1.0",49.246529,16.26273
14427,"Újezd u Rosic",49.222608,16.253994
14428,"Újezd u Rosic, u kovárny",49.222415,16.248462
14429,"Zálesná Zhoř",49.251147,16.291372
1443,"Oblá",49.177499,16.552707
14430,"Zálesná Zhoř, hájenka",49.251882,16.278724
14431,"Čučice",49.140006,16.277489
14432,"Ketkovice",49.159057,16.264104
14433,"Ketkovice, kovárna",49.161018,16.26144
14434,"Rapotice, škola",49.19106,16.255348
14435,"Rapotice, železniční stanice",49.18409,16.256239
14436,"Sudice, náves",49.182238,16.236392
14437,"Sudice, rozcestí 1.0",49.180877,16.254778
14438,"Biskoupky",49.099688,16.280147
14439,"Biskoupky, rozc.",49.110276,16.285869
14440,"Ivančice, Budkovice",49.073074,16.347399
14441,"Ivančice, Alexovice",49.090773,16.355852
14443,"Ivančice, Alexovice, transformátor",49.089753,16.350857
14444,"Ivančice, Horní Hlinky",49.102017,16.385553
14445,"Ivančice, Hrubšice",49.09312,16.303917
14446,"Ivančice, náměstí",49.102275,16.37522
14447,"Ivančice, Němčice, sokolovna",49.094084,16.364314
14448,"Ivančice, Oslavanská",49.103814,16.368589
14449,"Ivančice, Řeznovice",49.086045,16.323792
14450,"Ivančice, Řeznovice, škola",49.084825,16.319868
14451,"Ivančice, silo",49.108054,16.35581
14452,"Ivančice, Stříbský mlýn",49.089538,16.404543
14453,"Ivančice, škola",49.104439,16.371964
14454,"Ivančice, železniční stanice",49.097899,16.372472
14455,"Nová Ves, host. U Slavíků",49.106578,16.314521
14456,"Nová Ves, škola",49.108679,16.309763
14457,"Oslavany, aut. st.",49.120782,16.336443
14458,"Oslavany, Havířská",49.131305,16.326685
14459,"Oslavany, Dolina",49.116663,16.324708
14460,"Oslavany, náměstí",49.126496,16.330829
14461,"Oslavany, Nová čtvrť",49.128752,16.323029
14462,"Oslavany, Podlesí",49.13792,16.346303
14463,"Oslavany, Permonium",49.125765,16.345658
14464,"Oslavany, Tř. 1. máje",49.133304,16.334578
14465,"Oslavany, U mlýnka",49.136101,16.344033
14466,"Oslavany, železniční stanice",49.119084,16.345184
14467,"Moravský Krumlov, Břízová",49.041609,16.306857
14468,"Moravský Krumlov, Durdice",49.038448,16.321217
14469,"Moravský Krumlov, průmyslová zóna",49.04891,16.339637
1447,"Obřanská - u školy",49.222716,16.644771
14470,"Moravský Krumlov, Jatky",49.037643,16.310305
14471,"Moravský Krumlov, Kavalírka",49.045754,16.310729
14472,"Moravský Krumlov, náměstí",49.048725,16.312711
14473,"Moravský Krumlov, poliklinika",49.043479,16.305563
14474,"Moravský Krumlov, Okružní",49.038475,16.31619
14475,"Moravský Krumlov, Rakšice, restaurace",49.035613,16.319658
14476,"Moravský Krumlov, u přejezdu",49.044994,16.339475
14477,"Moravský Krumlov, stezka",49.044908,16.321858
14478,"Moravský Krumlov, Václavská",49.044043,16.31558
14479,"Moravský Krumlov, železniční stanice",49.04624,16.338136
1448,"Obřanský most",49.227533,16.649902
14480,"Ivančice, Budkovice, rozcestí",49.081928,16.349279
14481,"Moravský Krumlov, Ivančická",49.050613,16.296662
14482,"Moravský Krumlov, hájenka",49.043838,16.359682
14483,"Moravský Krumlov, Na Kačence",49.033103,16.303278
14484,"Moravský Krumlov, škola",49.047595,16.301727
14485,"Moravský Krumlov, u parku",49.045114,16.304434
14486,"Moravský Krumlov, Polánka",49.068361,16.304117
14487,"Moravský Krumlov, Polánka, rozcestí",49.066169,16.308249
14488,"Moravský Krumlov, Rakšice, lesovna",49.013733,16.355894
14489,"Moravský Krumlov, Rakšice, Silo",49.019335,16.341522
14490,"Moravský Krumlov, Rakšice, žel.st.",49.014358,16.345505
14491,"Moravský Krumlov, Rokytná",49.064781,16.323144
14492,"Moravský Krumlov, Rokytná, rozcestí",49.074574,16.326665
14493,"Moravský Krumlov, Stavení",49.05523,16.389172
14494,"Dobřínsko",49.053529,16.260958
14495,"Rybníky",49.025458,16.281038
14496,"Ivančice, Němčice",49.093246,16.368351
14497,"Sudice, škola",49.181074,16.242053
14498,"Sudice, Výhon",49.180375,16.250437
14499,"Moravský Krumlov, autobusové nádraží",49.04818,16.309271
14501,"Lhánice",49.111815,16.217583
14502,"Mohelno",49.114162,16.1901
14503,"Mohelno, sokolovna",49.115265,16.194616
14504,"Senorady",49.123982,16.244818
14505,"Senorady, u kovárny",49.122438,16.250935
14507,"Náměšť nad Oslavou, autobusové nádraží",49.207007,16.14766
14519,"Dolní Dubňany, u mostu",49.055517,16.224832
1452,"Obřany, sídliště",49.235584,16.644343
14520,"Dukovany, obec",49.079628,16.190947
14521,"Dukovany, rozcestí",49.086423,16.162144
14522,"Horní Dubňany",49.062948,16.201328
14523,"Horní Dubňany, obecní úřad",49.065899,16.203088
14524,"Jamolice, lesovna",49.079928,16.239199
14525,"Jamolice, mateřská škola",49.072092,16.258284
14526,"Jamolice, restaurace",49.073338,16.249429
14528,"Dobelice, Krumlovská",49.017208,16.27859
14529,"Dobelice, obecní úřad",49.016771,16.279006
1453,"Olbrachtovo náměstí",49.224699,16.558583
14530,"Dobelice, Vémyslická",49.016693,16.276102
14531,"Džbánice",49.001555,16.208171
14532,"Kadov",48.98232,16.28711
14533,"Kadov, rozcestí",48.991877,16.277283
14535,"Lesonice, požární zbrojnice",49.003561,16.310147
14536,"Miroslavské Knínice",48.978017,16.322579
14537,"Petrovice",49.007495,16.29147
14538,"Vémyslice, nový hřbitov",49.025676,16.24341
14539,"Vémyslice, u kostela",49.022563,16.253826
14540,"Vémyslice, váha",49.018635,16.263301
14541,"Bohutice",48.989738,16.360072
14542,"Hostěradice, lom",48.946936,16.265203
14543,"Hostěradice, náměstí",48.950582,16.259558
14544,"Hostěradice, Chlupice",48.951205,16.242968
14545,"Hostěradice, Míšovice",48.962262,16.262175
14546,"Miroslav, autobusové nádraží",48.947007,16.313
14548,"Miroslav, jesle",48.945167,16.307937
14549,"Miroslav, kostel",48.950164,16.313693
1455,"Olomoucká - u školy",49.186303,16.652718
14550,"Miroslav, provozovna ČAS",48.941965,16.321183
14551,"Miroslav, Réna",48.933508,16.337323
14552,"Miroslav, rozcestí",48.933557,16.362409
14554,"Miroslav, statek",48.945987,16.317807
14555,"Miroslav, železniční stanice",48.93532,16.362297
14557,"Miroslav, Kašenec, státní silnice",48.918483,16.333665
14558,"Miroslav, Kašenec, točna",48.919183,16.327708
14559,"Našiměřice",48.968258,16.372205
14561,"Našiměřice, železniční stanice",48.963144,16.350726
14562,"Skalice, dolní zastávka",48.963511,16.224311
14564,"Skalice, sokolovna",48.961453,16.223723
14565,"Suchohrdly u Miroslavi",48.942994,16.363104
1457,"Olšanského",49.244294,16.577498
14601,"Dukovany, EDU",49.090362,16.144966
14602,"Čermákovice",49.032307,16.19339
14603,"Rešice, dvůr",49.048586,16.164028
14604,"Rešice, restaurace",49.053075,16.172038
14605,"Rešice, Kordula, rozcestí",49.061292,16.145902
14606,"Tulešice, Jarolímův mlýn",49.03117,16.23049
14607,"Tulešice, křižovatka",49.040096,16.204039
14608,"Tulešice, zámek",49.038923,16.205912
1461,"Ondrouškova",49.217593,16.517246
1462,"Optátova",49.20872,16.555587
1463,"Opuštěná",49.185561,16.613497
1466,"Ořechovská",49.156838,16.599868
1467,"Ořešín",49.276463,16.606664
1468,"Ořešínská",49.273454,16.599797
14701,"Hrotovice, autobusové nádraží",49.107408,16.060075
14702,"Hrotovice, správa silnic",49.103933,16.072176
14703,"Slavětice",49.103547,16.106793
14704,"Slavětice, rozcestí",49.101699,16.083697
14706,"Rouchovany",49.069188,16.109075
14709,"Rouchovany, učiliště",49.072072,16.101738
14710,"Rouchovany, Šemíkovice",49.053162,16.112698
14711,"Horní Kounice",49.026293,16.151487
14713,"Medlice, křižovatka",49.006268,16.125894
14715,"Přeskače, obec",49.015103,16.107128
14718,"Tavíkovice, hostinec",49.03176,16.10654
14719,"Tavíkovice, škola",49.033761,16.103083
1472,"Osová",49.168899,16.566766
14720,"Tavíkovice, Dobronice",49.020443,16.077052
14723,"Újezd, zámeček",49.023133,16.053993
14725,"Tavíkovice, Oseva",49.032868,16.103444
1473,"Otakara Ševčíka",49.195016,16.646108
1475,"Palackého vrch",49.224173,16.573374
1476,"Palackého náměstí",49.250828,16.581838
1477,"Pálavské náměstí",49.205873,16.657823
1478,"Pavlíkova",49.194724,16.583
1479,"Panská lícha",49.245186,16.624821
1481,"Pavlovská",49.189761,16.531177
1483,"Pionýrská",49.207723,16.604443
1485,"Pluháčkova",49.275205,16.604222
1487,"Pisárky",49.193724,16.570114
1488,"Pod dálnicí",49.163526,16.555281
1489,"Podbělová",49.213965,16.681523
1490,"Pod Jurankou",49.199163,16.566294
1491,"Podkomorská",49.225484,16.513572
1492,"Pod nemocnicí",49.172181,16.568988
1493,"Podlesí",49.21876,16.54232
1494,"Pod Mniší horou",49.227402,16.534252
1495,"Pod Tuřankou",49.173121,16.675222
1496,"Podlomní",49.192375,16.655178
1497,"Podolská",49.20307,16.713793
1498,"Podsednická",49.209489,16.645874
1499,"Podnikatelská",49.227197,16.576307
1501,"Podstránská",49.187131,16.666511
1502,"Podveská",49.217615,16.558598
1503,"Podzimní",49.221605,16.653027
1506,"Poliklinika Lesná",49.222462,16.625658
15101,"Hajany",49.11067,16.555062
15102,"Modřice, Agropodnik",49.115717,16.606647
15103,"Modřice, CTP Inventec",49.115424,16.600605
15105,"Modřice, CTP DHL",49.111496,16.602914
1511,"Popelova",49.15677,16.64636
15110,"Modřice, Uhelné sklady",49.118348,16.60622
15113,"Moravany, Bohunická cesta",49.150948,16.58364
15114,"Moravany, Hlavní",49.147163,16.578724
15115,"Moravany, Nebovidská",49.147983,16.569237
15116,"Nebovidy, dolní konec",49.14204,16.549113
15117,"Nebovidy, rozcestí Střelice",49.145417,16.531543
15118,"Nebovidy, u kostela",49.14171,16.553836
15119,"Nebovidy, Závist",49.134425,16.528867
1512,"Poříčí",49.187296,16.594573
15120,"Želešice, hostinec",49.116809,16.581516
15121,"Želešice, na kopci",49.118343,16.592052
15122,"Modřice, Brněnská",49.129762,16.604962
15123,"Modřice, čistička",49.131992,16.633462
15124,"Modřice, Drůbežářské závody",49.133705,16.630941
15125,"Měnín, Albrechtov",49.068529,16.682665
15126,"Modřice, Husova",49.1322,16.612159
15127,"Modřice, Masarykova",49.131145,16.614594
15128,"Měnín, u mlýna",49.084637,16.694445
15129,"Modřice, náměstí",49.127715,16.615961
1513,"Pratecká",49.146272,16.681431
15130,"Modřice, Olympia",49.139347,16.634025
15131,"Opatovice",49.075972,16.641074
15132,"Modřice, Olympia jih",49.135069,16.633864
15133,"Otmarov, chaloupka",49.100459,16.680497
15134,"Modřice, smyčka",49.126974,16.604488
15135,"Popovice, u tratě",49.103857,16.608063
15136,"Rajhradice, Loučka",49.092567,16.621709
15137,"Modřice, Tyršova",49.129832,16.603529
15138,"Rajhrad, hospic",49.086062,16.598458
15139,"Modřice, Za mlýnem",49.130699,16.624761
1514,"Pražákova",49.162888,16.602621
15140,"Modřice, železniční stanice",49.133484,16.606821
15141,"Modřice, Žižkova",49.134054,16.61513
15143,"Rajhradice, obecní úřad",49.091666,16.633934
15144,"Rajhradice, váha",49.093622,16.635491
15145,"Rebešovice",49.104969,16.638034
15146,"Rebešovice, Horky",49.108661,16.641332
15149,"Rajhrad, Městečko",49.089175,16.606041
15153,"Popovice, železniční stanice",49.103236,16.607532
15154,"Měnín, ZD",49.09157,16.689734
15155,"Popovice",49.10674,16.615093
15156,"Holasice",49.078005,16.60397
1516,"Pražská",49.173478,16.531543
15162,"Želešice, u dálnice",49.115128,16.569013
15165,"Měnín, obchodní středisko",49.079732,16.693543
15166,"Rajhrad, stará pošta",49.087692,16.591767
15167,"Měnín, rozcestí",49.087222,16.716475
15168,"Rajhrad, městský úřad",49.089813,16.603978
1517,"Preslova",49.199298,16.570799
15171,"Měnín, u pomníku",49.08569,16.698812
15175,"Otmarov",49.100402,16.672208
15176,"Rajhradice, obalovna",49.096397,16.651628
15179,"Rajhrad, klášter",49.090886,16.614919
1518,"Prodloužená",49.151763,16.647696
15180,"Želešice, u Sulzrů",49.116721,16.57747
15181,"Rajhrad, železniční stanice",49.084391,16.605152
15182,"Rajhrad, GEIS",49.085488,16.582679
15183,"Modřice, Bobrava, motel",49.106888,16.601436
15184,"Modřice, Bobrava, střed",49.105065,16.601406
15185,"Modřice, Decathlon",49.137598,16.637297
15186,"Modřice, XXXLutz",49.138934,16.637263
15201,"Bratčice",49.065502,16.522818
15202,"Bratčice, pískovna",49.059682,16.517593
15203,"Ledce, obecní úřad",49.052175,16.555735
15204,"Ledce, rozcestí",49.049795,16.565591
15205,"Medlov",49.034707,16.523155
15206,"Mělčany",49.075269,16.493576
15207,"Němčičky",49.05062,16.501284
15208,"Sobotovice",49.059106,16.558127
15209,"Sobotovice, transformátor",49.061513,16.552708
1521,"Proškovo náměstí",49.220019,16.643342
15210,"Syrovice",49.080309,16.548539
15211,"Syrovice, MŠ",49.078921,16.546658
15212,"Syrovice, Sobotovická",49.077625,16.545298
15213,"Blučina, Komenského",49.055334,16.63508
15214,"Blučina, náměstí",49.0549,16.646477
15215,"Blučina, obchodní středisko",49.056137,16.645115
15216,"Blučina, hřbitov",49.052408,16.656917
15217,"Blučina, ZD",49.053467,16.626852
15219,"Hrušovany u Brna, obecní úřad",49.039091,16.594531
1522,"Provazníkova",49.214495,16.623938
15220,"Hrušovany u Brna, sídliště",49.039226,16.584787
15221,"Hrušovany u Brna, VÚZA",49.042062,16.577123
15222,"Hrušovany u Brna, žel. st.",49.034256,16.591743
15223,"Moutnice, střed",49.049062,16.737068
15224,"Moutnice, u fary",49.05063,16.738792
15225,"Nesvačilka",49.064001,16.754377
15226,"Těšany",49.039401,16.771127
15227,"Těšany, u váhy",49.041014,16.76507
15228,"Židlochovice, ADOSA",49.028799,16.617033
15229,"Židlochovice, aut. st.",49.036032,16.614758
1523,"Prušánecká",49.208887,16.663417
15230,"Židlochovice, škola",49.037011,16.610483
15231,"Židlochovice, nábřeží",49.032948,16.620197
15232,"Moutnice, Rozařín",49.052795,16.737614
15233,"Měnín, Jalovisko",49.055856,16.707137
15234,"Medlov, Kafilerie",49.017782,16.534938
15236,"Sobotovice, rozcestí",49.060587,16.565757
15239,"Židlochovice, sídliště",49.039601,16.616325
15241,"Židlochovice, železniční stanice",49.033551,16.617002
15242,"Syrovice, logistický areál",49.075933,16.55606
15243,"Syrovice, Chocholáč",49.075679,16.541612
1525,"Přemyslovo náměstí",49.176373,16.68731
15251,"Vojkovice",49.052156,16.607262
15252,"Vojkovice, sídliště",49.056811,16.603809
15255,"Medlov, seniorcentrum",49.035711,16.528611
15256,"Moutnice, k Jalovisku",49.048213,16.736238
1526,"Příjezdová",49.261837,16.569462
1527,"Přístaviště",49.228231,16.522304
1528,"Přívrat",49.218597,16.573847
1530,"Přízřenice, smyčka",49.14428,16.621157
15301,"Přísnotice",49.003395,16.613415
15302,"Unkovice, rozc.",49.015457,16.60427
15303,"Žabčice",49.012531,16.601671
15304,"Žabčice, sokolovna",49.012877,16.60025
15305,"Žabčice, u Mahovských",49.004733,16.609839
15306,"Žabčice, žel. st.",49.011253,16.595109
15307,"Vranovice, žel.st.",48.964152,16.604845
15308,"Cvrčovice",48.996648,16.51287
15309,"Cvrčovice, učiliště",48.990823,16.516354
1531,"Přízřenice",49.145202,16.620114
15310,"Ivaň",48.92928,16.57525
15311,"Ivaň, hájenka Plaček",48.946603,16.589208
15312,"Malešovice, obecní úřad",49.022869,16.500382
15313,"Odrovice",49.007622,16.511005
15314,"Odrovice, bytovky",49.011565,16.507116
15315,"Pohořelice, Brněnská",48.9849,16.530256
15317,"Pohořelice, náměstí",48.980757,16.522231
15318,"Pohořelice, Nová Ves",48.937073,16.528308
1532,"Raisova",49.182151,16.562552
15320,"Pohořelice, obchodní akademie",48.978607,16.505343
15321,"Pohořelice, Smolín",49.007297,16.540233
15323,"Pohořelice, Tyršova",48.983575,16.519513
15324,"Pohořelice, Velký Dvůr",48.962313,16.533415
15325,"Pohořelice, Velký Dvůr, rozcestí",48.962035,16.519421
15327,"Pohořelice, Městský úřad",48.976913,16.515378
15328,"Přibice, kostel",48.961798,16.573021
15329,"Přibice, u kaple",48.963595,16.575845
1533,"Ráječek",49.1611,16.637815
15330,"Nosislav, Kroužek",49.014256,16.652173
15331,"Nosislav, Městečko",49.010659,16.65895
15332,"Nosislav, Pod kopcem",49.00864,16.665974
15333,"Uherčice, Na trávníku",48.970176,16.651922
15334,"Uherčice, obecní úřad",48.968026,16.655063
15335,"Uherčice, ZD",48.965845,16.663422
15336,"Velké Němčice",48.99493,16.675519
15337,"Velké Němčice, Boudky",49.004601,16.671143
15338,"Velké Němčice, Brněnská",48.993811,16.675253
15339,"Velké Němčice, Nová Ves",48.974189,16.69881
15340,"Velké Němčice, obecní úřad",48.991157,16.670754
15341,"Velké Němčice, rozcestí",48.981235,16.6493
15342,"Velké Němčice, škola",48.991905,16.67408
15343,"Velké Němčice, ZD",48.988616,16.679204
15344,"Boleradice",48.967437,16.814206
15345,"Boleradice, mlýn",48.96267,16.833974
15346,"Boleradice, u kříže",48.969533,16.806925
15347,"Boleradice, ZD",48.963007,16.825669
15348,"Diváky, dílny",48.993794,16.784093
15349,"Diváky, dolní konec",48.991043,16.798233
1535,"Reissigova",49.216255,16.604041
15350,"Diváky, obecní úřad",48.98914,16.788904
15351,"Diváky, samota",48.987544,16.803445
15352,"Křepice, dolní",49.000898,16.723558
15353,"Křepice, škola",48.998483,16.717538
15354,"Kurdějov, most",48.956475,16.763122
15355,"Kurdějov, na kopci",48.954042,16.759311
15356,"Kurdějov, u penzionu",48.961906,16.760426
15357,"Vranovice, vodárna",48.975217,16.633908
15358,"Vranovice, Lipová",48.970754,16.606221
1536,"Rakovec",49.227805,16.508536
15360,"Nikolčice, Jednota",48.992387,16.753876
15361,"Nikolčice, obecní úřad",48.995315,16.753469
15362,"Nikolčice, rozcestí",48.983856,16.762561
15363,"Nikolčice, ZD",48.999773,16.742824
15364,"Šitbořice, na kopci",49.011477,16.778066
15365,"Šitbořice, Nikolčická",49.016373,16.77537
15366,"Šitbořice, obecní úřad",49.015388,16.776133
15367,"Vranovice, škola",48.966768,16.606556
15368,"Pohořelice, průmyslová zóna jih",48.971631,16.516888
15369,"Pohořelice, Velký Dvůr, sádky",48.963997,16.537391
1537,"Rakovecká",49.226049,16.518757
15371,"Vranovice, sokolovna",48.971155,16.603841
15372,"Nikolčice, škola",48.996048,16.753804
15379,"Pohořelice, průmyslová zóna východ",48.99023,16.540052
1538,"Revoluční",49.149762,16.662448
15380,"Vranovice, u hřbitova",48.967671,16.588811
1539,"Renčova",49.246955,16.575106
1540,"Ríšova",49.206684,16.481219
15400,"Horní Bojanovice",48.949048,16.800138
15401,"Horní Bojanovice, rozcestí",48.950262,16.810931
15402,"Horní Bojanovice, ZD",48.940717,16.79728
15403,"Hustopeče, autobusové nádraží",48.938018,16.735492
15404,"Hustopeče, cihelna",48.946544,16.742482
15405,"Hustopeče, farma",48.930205,16.765343
15406,"Hustopeče, Mostárna",48.914237,16.710214
15407,"Hustopeče, Nádražní",48.935361,16.731025
15408,"Hustopeče, plnírna",48.917151,16.703184
15409,"Hustopeče, strojírny",48.933399,16.743905
1541,"Riviéra",49.18746,16.572246
15410,"Hustopeče, u stadionu",48.944199,16.733041
15411,"Hustopeče, nemocnice",48.944552,16.731521
15412,"Popice",48.928419,16.664539
15413,"Popice, rozcestí",48.91954,16.684411
15414,"Pouzdřany, obecní úřad",48.935503,16.625457
15415,"Pouzdřany, škola",48.941515,16.632115
15416,"Starovice",48.955548,16.708525
15417,"Starovice, zemědělské družstvo",48.95695,16.699551
15418,"Starovice, rozcestí",48.960176,16.717714
15419,"Starovičky",48.907554,16.775805
15420,"Starovičky, průmyslová zóna",48.915072,16.770392
15422,"Strachotín",48.905282,16.652333
15423,"Šakvice, horní konec",48.899151,16.712903
15424,"Šakvice, obecní úřad",48.89684,16.717438
15425,"Šakvice, železniční stanice",48.912728,16.706628
15427,"Pasohlávky, rozcestí Ivaň",48.918785,16.557255
15428,"Pasohlávky, u kostela",48.90308,16.54164
15429,"Troskotovice, hřbitov",48.921942,16.441028
1543,"Rolencova",49.145211,16.655319
15430,"Troskotovice, prodejna",48.918662,16.432618
15431,"Troskotovice, škola",48.918863,16.436743
15433,"Vlasatice, obecní úřad",48.933722,16.484161
15434,"Vlasatice, Troskotovická",48.931098,16.483465
15435,"Pasohlávky, Aqualand Moravia",48.904932,16.57559
15436,"Hustopeče, Svatopluka Čecha",48.93606,16.72967
15437,"Hustopeče, Javorová",48.93822,16.72874
15438,"Hustopeče, Dlouhá",48.93965,16.72776
15439,"Hustopeče, U Větrolamu",48.94157,16.72454
1544,"Rosického náměstí",49.214727,16.568532
15440,"Hustopeče, Generála Peřiny",48.94194,16.72221
15441,"Hustopeče, Starovická",48.94338,16.72267
15442,"Hustopeče, Mírová",48.94576,16.72572
15443,"Hustopeče, Žižkova",48.94381,16.73006
15444,"Hustopeče, ZŠ Komenského",48.93993,16.73318
15445,"Hustopeče, Kaufland",48.949423,16.72459
1546,"Rotreklova",49.206567,16.68501
1547,"Roviny",49.127846,16.681375
1548,"Rozárka",49.254287,16.622674
1549,"Rozhraní",49.155776,16.592203
1550,"Ruda",49.220442,16.501928
15500,"Dolní Věstonice",48.888253,16.643496
15501,"Horní Věstonice",48.875874,16.624679
15502,"Klentnice",48.846778,16.64498
15503,"Klentnice, rozcestí",48.851233,16.642915
15504,"Klentnice, u rybníka",48.840853,16.642589
15505,"Pavlov",48.874271,16.67368
15506,"Pavlov, Rudolfa Gajdoše",48.872358,16.667379
15507,"Pavlov, rozcestí",48.878754,16.676276
15508,"Perná",48.855156,16.620798
1551,"Růženin dvůr",49.203457,16.666696
15510,"Perná, samota",48.859635,16.611095
15511,"Bořetice",48.91189,16.854014
15512,"Bořetice, u Floriánka",48.910704,16.858763
15513,"Bořetice, železniční stanice",48.916373,16.851462
15514,"Němčičky, rozcestí",48.936497,16.816053
15515,"Němčičky, střed",48.934891,16.82186
15516,"Němčičky, transformátor",48.933393,16.818822
15517,"Němčičky, u mlýna",48.933338,16.834867
15518,"Němčičky, ZD",48.935774,16.828871
15519,"Přítluky, pod věží",48.855272,16.773561
1552,"Rybkova",49.206076,16.593385
15522,"Přítluky, rozcestí",48.863261,16.755601
15523,"Rakvice, kostel",48.8588,16.812417
15524,"Rakvice, rozcestí",48.865774,16.821993
15525,"Rakvice, škola",48.85817,16.806112
15526,"Rakvice, Trkmanský dvůr",48.867951,16.842758
15527,"Rakvice, Trkmanský dvůr, rozcestí",48.869811,16.831636
15528,"Velké Pavlovice, autobusové nádraží",48.897814,16.816964
1553,"Řečkovice",49.247143,16.579164
15530,"Velké Pavlovice, gymnázium",48.90421,16.816478
15531,"Velké Pavlovice, obchodní středisko",48.90219,16.818205
15532,"Zaječí, za nádražím",48.894263,16.786972
15533,"Zaječí, mateřská škola",48.876472,16.768873
15534,"Zaječí, restaurace",48.873076,16.766517
15535,"Zaječí, rozcestí",48.897023,16.792438
15536,"Zaječí, škola",48.871666,16.773979
15537,"Zaječí, železniční stanice",48.889529,16.781664
15538,"Kobylí",48.93206,16.884068
15539,"Kobylí, statek",48.942318,16.897075
1554,"Rozcestí",49.285676,16.631799
15540,"Kobylí, škola",48.928781,16.886543
15541,"Vrbice, Jednota",48.916185,16.896002
15542,"Vrbice, obecní úřad",48.912758,16.891944
15543,"Dolní Dunajovice, Hlavní",48.857602,16.586878
15544,"Dolní Dunajovice, Jednota",48.855128,16.592166
15545,"Dolní Dunajovice, rozcestí",48.851544,16.609797
15546,"Břežany, u hostince",48.867867,16.344198
15547,"Břežany, u pošty",48.870178,16.339708
15548,"Břežany, u statku",48.872427,16.338143
15550,"Damnice",48.920113,16.373595
15551,"Dolenice",48.909272,16.364848
15552,"Jiřice u Miroslavi",48.920697,16.39138
15553,"Litobratřice, u konírny",48.88351,16.400845
15554,"Litobratřice, obecní úřad",48.888136,16.403221
15555,"Mackovice, Břežanská",48.881693,16.316718
15556,"Mackovice, obecní úřad",48.88299,16.30957
15557,"Mackovice, rozcestí",48.900845,16.293373
15558,"Drnholec",48.857435,16.487133
15559,"Drnholec, škola",48.859678,16.486008
1556,"Řečkovice, hřbitov",49.253379,16.582413
15560,"Jevišovka",48.828412,16.465892
15561,"Novosedly",48.837906,16.493839
15562,"Novosedly, cihelna",48.835651,16.510978
15563,"Novosedly, železniční stanice",48.827217,16.495593
15564,"Nový Přerov",48.810388,16.493865
15565,"Brod nad Dyjí, obecní úřad",48.876293,16.536768
15566,"Břežany, osada Ležák",48.887026,16.347494
15567,"Velké Pavlovice, Hodonínská",48.897909,16.824946
15568,"Rakvice, U Šutráku",48.852061,16.821324
15569,"Břežany, škola",48.874348,16.334747
1557,"Řečkovice, nádraží",49.250891,16.59019
1559,"Říčanská",49.218534,16.497499
15600,"Bulhary, cihelna",48.816377,16.761377
15601,"Bulhary, střed",48.833047,16.745817
15602,"Bulhary, školka",48.828638,16.750328
15603,"Bulhary, u sadu",48.836231,16.741364
15604,"Milovice, hájenka",48.843073,16.726725
15605,"Milovice, restaurace",48.852328,16.698311
15606,"Ladná, Mlýnská",48.80821,16.884937
15608,"Ladná, škola",48.805472,16.872155
15609,"Ladná, železniční stanice",48.812202,16.88057
1561,"Řezáčova",49.226167,16.55551
15610,"Moravský Žižkov, Benátky",48.828256,16.92907
15611,"Moravský Žižkov, Bílovská",48.835267,16.922611
15612,"Moravský Žižkov, Křižovatka",48.833828,16.932327
15613,"Moravský Žižkov, Prechov dvůr",48.820957,16.924828
15614,"Podivín, Besední dům",48.829762,16.847782
15615,"Podivín, Fruta",48.82368,16.846774
15618,"Podivín, Bratislavská",48.829217,16.852864
15619,"Podivín, železniční stanice",48.83716,16.853732
1562,"Řípská",49.173322,16.682044
15620,"Velké Bílovice, autobusové nádraží",48.851539,16.889208
15621,"Velké Bílovice, kovárna",48.847785,16.895286
15622,"Velké Bílovice, na konci",48.843218,16.901326
15623,"Velké Bílovice, Svárov",48.85371,16.882253
15624,"Velké Bílovice, ZD",48.846285,16.884087
15625,"Přítluky, Nové Mlýny, Jednota",48.857853,16.731967
15626,"Přítluky, Nové Mlýny, obalovna",48.860686,16.741718
15627,"Hrabětice",48.796863,16.395168
15628,"Hrabětice, rozcestí",48.811255,16.39406
1563,"Psychiatrická nemocnice",49.185064,16.63643
15630,"Hrušovany nad Jevišovkou, DAPO",48.836855,16.415297
15631,"Hrušovany nad Jevišovkou, lékárna",48.828987,16.399588
15632,"Hrušovany nad Jevišovkou, Lidická, VÚPP",48.83149,16.401916
15633,"Hrušovany nad Jevišovkou, Pastviny",48.854153,16.38325
15634,"Hrušovany nad Jevišovkou, statek",48.817498,16.397738
15635,"Hrušovany nad Jevišovkou, STS",48.842893,16.403782
15636,"Hrušovany nad Jevišovkou, Znojemská",48.829848,16.394299
15637,"Hrušovany nad Jevišovkou, žel. st.",48.810247,16.383262
15638,"Pravice",48.843889,16.361861
15639,"Šanov, požární zbrojnice",48.802118,16.373985
1564,"Sadová",49.234035,16.604328
15640,"Šanov, u mostu",48.799233,16.386784
15641,"Březí",48.821367,16.563256
15642,"Dobré Pole",48.825967,16.535573
15643,"Podivín, mechanizační středisko",48.819181,16.874679
1565,"Sazenice",49.172877,16.623824
1566,"Semilasso",49.228076,16.593128
1567,"Skácelova",49.221527,16.585279
1568,"Skalní",49.17424,16.536133
1570,"Skandinávská",49.154535,16.629289
15700,"Bavory",48.83573,16.622435
15701,"Bavory, rozcestí",48.830759,16.61278
15702,"Mikulov, Brněnská",48.812173,16.630506
15703,"Mikulov, 22. dubna",48.805487,16.633496
15705,"Mikulov, kasárna",48.816006,16.650171
15706,"Mikulov, Mušlov, rozcestí",48.791034,16.67381
15707,"Mikulov, Pavlovská",48.810804,16.642497
15709,"Mikulov, u parku",48.802439,16.634055
15710,"Mikulov, u pošty",48.807667,16.639627
15711,"Mikulov, v lese",48.832028,16.679774
15712,"Mikulov, Valtická",48.801068,16.644783
15714,"Mikulov, železniční stanice",48.801869,16.626232
15715,"Sedlec, pošta",48.779213,16.691376
15716,"Sedlec, sídliště",48.773291,16.703678
15717,"Hlohovec, obecní úřad",48.773973,16.763082
15718,"Hlohovec, rybárna",48.775755,16.771297
15719,"Hlohovec, Tři Grácie",48.776933,16.78322
1572,"Skrejš",49.262076,16.59535
15720,"Lednice, Apollo",48.785548,16.826424
15721,"Lednice, hospodářské družstvo",48.8,16.791312
15722,"Lednice, náměstí",48.800002,16.804153
15723,"Lednice, Nejdek",48.81246,16.775268
15724,"Lednice, Nejdek, rozcestí",48.808814,16.771998
15725,"Lednice, skleníky",48.804268,16.779102
15726,"Lednice, škola",48.797341,16.806333
15727,"Lednice, Valtická",48.794975,16.799449
15728,"Břeclav, 1. máje",48.758461,16.878682
15729,"Břeclav, autobusové nádraží",48.754611,16.893334
1573,"Slatina, nádraží",49.169622,16.682352
15730,"Břeclav, BORS",48.75025,16.893111
15731,"Břeclav, cukrovar",48.763461,16.885673
15732,"Břeclav, Gumotex",48.751366,16.894592
15733,"Břeclav, Charvátská Nová Ves, Lednická",48.766752,16.846556
15734,"Břeclav, Stará Břeclav, J. Moláka",48.777407,16.897259
15735,"Břeclav, Stará Břeclav, křižovatka Ladná",48.779601,16.902587
15736,"Břeclav, náměstí TGM, kostel",48.759272,16.88078
15737,"Břeclav, náměstí TGM, městský úřad",48.759683,16.881319
15738,"Břeclav, nemocnice",48.753134,16.881758
15739,"Břeclav, Pohansko, rozcestí",48.749451,16.900769
15740,"Břeclav, poliklinika",48.752843,16.883794
15741,"Břeclav, Poštorná, Hlavní na konci",48.7586,16.859367
15742,"Břeclav, Poštorná, kostel",48.752909,16.867413
15743,"Břeclav, Poštorná, Lesní",48.755743,16.873957
15744,"Břeclav, Poštorná, PKZ",48.751964,16.85204
15745,"Břeclav, Poštorná, Valtická",48.756558,16.856743
15746,"Břeclav, Stará Břeclav, Skopalíkova",48.772893,16.891364
15747,"Břeclav, Stará Břeclav, kulturní dům",48.774218,16.886674
15751,"Břeclav, Jana Palacha",48.756161,16.888901
15752,"Břeclav, Poštorná, Hlavní",48.755394,16.863281
15753,"Břeclav, Charvátská Nová Ves, Palackého",48.762334,16.851012
15754,"Břeclav, Charvátská N. Ves, Obránců míru",48.769287,16.84762
15755,"Břeclav, Městský hřbitov",48.750368,16.906646
15756,"Břeclav, Lanžhotská",48.750778,16.903667
15757,"Břeclav, Dům kultury",48.7571,16.884827
15758,"Břeclav, Poštorná, Nádražní",48.752103,16.858368
15759,"Břeclav, Poštorná, Tovární čtvrť",48.754713,16.849599
1576,"Slatina, rozcestí",49.182506,16.691903
15760,"Břeclav, Poštorná, Valtická, točna",48.758005,16.849742
15762,"Břeclav, Poštorná, Jana Skácela",48.749848,16.869392
15763,"Břeclav, Poštorná, Hraniční",48.746436,16.870765
15764,"Břeclav, Poštorná, FOSFA",48.741131,16.870569
15765,"Břeclav, Průmyslová škola",48.75567,16.884343
15766,"Břeclav, Stará Břeclav, Domov seniorů",48.768072,16.887118
15767,"Břeclav, Stará Břeclav, u parku",48.775273,16.890122
15768,"Břeclav, Stará Břeclav, Vinohradní",48.77552,16.89359
15769,"Břeclav, Stará Břeclav, Lidická",48.76778,16.890053
1577,"Slatina, sídliště",49.181876,16.690302
15770,"Břeclav, Slovácká",48.759645,16.887459
15771,"Břeclav, Sovadinova",48.763067,16.88926
15772,"Břeclav, Stará Břeclav, Mánesova",48.772417,16.887833
15773,"Hevlín, cihelna",48.761458,16.383421
15775,"Hevlín, škola",48.751398,16.380222
15787,"Mikulov, Mušlov",48.788375,16.679939
15788,"Mikulov, Poliklinika",48.804996,16.638546
15790,"Mikulov, Průmyslová zóna, točna",48.813828,16.619948
15791,"Mikulov, Bezručova",48.812464,16.651058
15792,"Mikulov, Žižkova",48.815875,16.650639
15793,"Mikulov, Dukelská",48.813408,16.646714
15794,"Mikulov, Pod Kozím hrádkem",48.808983,16.636108
15796,"Mikulov, Hliniště",48.813528,16.645689
15797,"Mikulov, Gagarinova",48.813095,16.633689
15798,"Mikulov, G-centrum",48.797645,16.627705
15799,"Mikulov, Supermarket",48.805171,16.626893
1580,"Slatinka",49.164924,16.68889
15800,"Valtice, bažantnice",48.752931,16.73886
15801,"Valtice, aut. st.",48.742748,16.755541
15802,"Valtice, Boří Dvůr",48.721178,16.8009
15803,"Valtice, celnice",48.738743,16.733452
15804,"Valtice, česká čtvrť",48.744615,16.770629
15805,"Valtice, hájenka",48.746276,16.792044
15806,"Valtice, hřbitov",48.752026,16.765306
15807,"Valtice, kasárna",48.72931,16.774042
15808,"Valtice, nemocnice",48.742883,16.760649
15809,"Valtice, Úvaly",48.741519,16.705681
1581,"Areál Slatina",49.168608,16.678414
15810,"Valtice, Úvaly, na konci",48.742541,16.699415
15811,"Valtice, železniční stanice",48.747502,16.742888
15812,"Kostice, Břeclavská",48.748801,16.976148
15813,"Kostice, kaplička",48.747439,16.981179
15814,"Kostice, Lanžhotská",48.742492,16.978943
15815,"Kostice, obecní úřad",48.746393,16.981563
15816,"Kostice, váha",48.746172,16.924543
15817,"Lanžhot, autobusové nádraží",48.725055,16.965827
15819,"Lanžhot, Jednota",48.722446,16.95751
1582,"Slavíčkova",49.225955,16.617936
15820,"Lanžhot, obchodní středisko",48.728958,16.963511
15821,"Lanžhot, u mostu",48.729074,16.973123
15822,"Tvrdonice, náměstí",48.760899,16.992788
15824,"Tvrdonice, mateřská škola",48.764263,16.989576
15825,"Tvrdonice, na konci",48.754648,16.98725
15827,"Týnec, váha",48.779382,17.009993
15828,"Valtice, železniční zastávka",48.748621,16.762426
15829,"Laa an der Thaya, Stadtplatz",48.720393,16.384622
15838,"Laa an der Thaya, Bahnhof",48.723106,16.402444
15839,"Laa an der Thaya, Therme",48.723047,16.395582
15843,"Hevlín, LAA BOMBA - SHOPPING CENTER",48.732097,16.38276
15845,"Tvrdonice, Týnecká",48.764465,16.995481
1586,"Slovanské náměstí",49.222986,16.591408
1587,"Smetanova",49.20159,16.601969
15901,"Falkenstein im Weinviertel, Marktplatz",48.720269,16.585181
15902,"Poysbrunn, Hauptstraße 25",48.719908,16.627155
15903,"Poysdorf, Dreifaltigkeitsplatz",48.668266,16.629496
1591,"Sochorova",49.213448,16.564637
15916,"Herrnbaumgarten, Ortsmitte",48.696501,16.681574
15917,"Schrattenberg, Kirchenplatz",48.723703,16.722684
15918,"Herrnbaumgarten, Sportplatz",48.698134,16.688739
1592,"Sokolnická",49.131433,16.683993
1596,"Soukenická",49.188683,16.607355
1597,"Soukopova",49.199044,16.57889
1598,"Spáčilova",49.188646,16.641256
1601,"Spojovací",49.211936,16.586668
1602,"Sportovní",49.212118,16.607155
1606,"Srbská",49.228165,16.586996
1607,"Stamicova",49.194785,16.539673
1608,"Stará dálnice",49.199295,16.517112
1610,"Stará nemocnice",49.17354,16.577451
16101,"Blažovice, hostinec",49.166001,16.786446
16102,"Blažovice, pod kostelem",49.162838,16.782888
16103,"Hostěrádky-Rešov",49.117313,16.785356
16104,"Jiříkovice",49.166322,16.757848
16105,"Jiříkovice, motorest Rohlenka",49.183551,16.760813
1611,"Stará osada",49.202304,16.641929
16110,"Mokrá-Horákov, cementárna",49.214097,16.765264
16111,"Kobylnice",49.140256,16.731918
16112,"Kobylnice, Na Rybníku",49.142805,16.726494
16113,"Mokrá-Horákov, Mokrá",49.223603,16.751381
16114,"Mokrá-Horákov, sídliště",49.221086,16.751864
16115,"Kobylnice, obecní úřad",49.137556,16.732774
16116,"Podolí",49.189827,16.726117
16118,"Podolí, Líšeňská",49.191825,16.719803
1612,"Staré Černovice",49.169957,16.647909
16120,"Ponětovice",49.152329,16.741466
16121,"Ponětovice, železniční stanice",49.15469,16.748163
16127,"Sokolnice, zámek",49.117873,16.725042
16129,"Šlapanice, Bedřichovice",49.179833,16.721516
1613,"Staré letiště",49.184967,16.659275
16130,"Šlapanice, Bedřichovice, rozc.",49.183188,16.722892
16135,"Prace, Mohyla míru",49.1272,16.761645
16136,"Šlapanice, železniční zastávka",49.16334,16.71989
16137,"Šlapanice, železniční stanice",49.157929,16.729256
16138,"Telnice",49.101749,16.718377
16139,"Prace, náves",49.139466,16.765108
16140,"Tvarožná, sokolovna",49.19306,16.776086
16141,"Prace, škola",49.138825,16.762735
16142,"Tvarožná, zemědělské družstvo",49.185894,16.764965
16143,"Prace, točna",49.141059,16.764044
16144,"Újezd u Brna, penzion",49.106569,16.765047
16145,"Sokolnice, obecní úřad",49.114044,16.721628
16146,"Újezd u Brna, Rychmanov",49.103518,16.765363
16147,"Sokolnice, rozvodna",49.114917,16.704879
16148,"Velatice",49.197433,16.753051
16149,"Sokolnice, železniční stanice",49.108307,16.733607
16150,"Žatčany, náves",49.088578,16.732552
16151,"Žatčany, škola",49.089367,16.731432
16152,"Žatčany, u mlýna",49.086604,16.725966
16153,"Tvarožná",49.190787,16.770356
16154,"Tvarožná, kostel",49.190188,16.775817
16155,"Šlapanice, Čechova",49.165914,16.722044
16156,"Újezd u Brna, městský úřad",49.104377,16.757401
16157,"Újezd u Brna, Revoluční",49.106487,16.749336
16158,"Újezd u Brna, škola",49.103793,16.754275
16159,"Šlapanice, Kalvodova",49.16643,16.726286
1616,"Starý Lískovec, smyčka",49.171189,16.554169
16160,"Velatice, Maxlůvka",49.184151,16.752488
16161,"Sokolnice, u hřbitova",49.12145,16.730669
16163,"Šlapanice, Riegrova",49.168445,16.726032
16165,"Šlapanice, sídliště",49.167038,16.718401
16166,"Mokrá-Horákov, Horákov",49.215676,16.749652
16167,"Mokrá-Horákov, rozc.cementárna",49.210068,16.752697
16168,"Mokrá-Horákov, lom",49.225969,16.756802
16172,"Kobylnice, hřbitov",49.13233,16.732992
16173,"Sokolnice, Brněnská",49.114309,16.714603
16174,"Prace, Aloise Slováka",49.134793,16.764573
1618,"Stránská skála",49.191853,16.673998
1619,"Stránská skála - smyčka",49.19272,16.677384
16201,"Bošovice, obecní úřad",49.052853,16.837358
16202,"Bošovice, Plaňava",49.047507,16.840558
16203,"Bošovice, u parku",49.058323,16.834908
16204,"Holubice, Curdík",49.174399,16.822471
16205,"Holubice, kruh",49.184546,16.799513
16206,"Holubice, nadjezd",49.178174,16.819134
16207,"Holubice, obecní úřad",49.177278,16.813581
16208,"Holubice, u mostu",49.179343,16.806418
16209,"Hrušky",49.129183,16.834174
1621,"Stránského",49.211946,16.568541
16210,"Kovalovice, Stará pošta",49.18493,16.825873
16211,"Křenovice, dol. žel. st.",49.143453,16.832781
16212,"Křenovice, hor. žel. st.",49.143443,16.824941
16213,"Křenovice, u hřbitova",49.140459,16.827993
16214,"Lovčičky",49.06822,16.84938
16215,"Milešovice, host. Laštůvka",49.082413,16.854648
16216,"Milešovice, sídliště",49.089705,16.850036
16217,"Milešovice, zast.",49.086615,16.850755
16218,"Otnice, dělnický dům",49.082798,16.818934
16219,"Otnice, host. U Marků",49.087258,16.81324
1622,"Strážní",49.178873,16.603997
16220,"Otnice, Milešovská",49.08866,16.82122
16221,"Otnice, zdrav.stř.",49.085983,16.813928
16222,"Šaratice",49.116952,16.802559
16223,"Vážany nad Litavou",49.130573,16.855832
16224,"Vážany nad Litavou, u mlýna",49.128938,16.851514
16225,"Zbýšov",49.129977,16.809391
16226,"Křenovice, Sokolská",49.143182,16.830647
16227,"Holubice, GLP Park",49.188149,16.810898
16228,"Holubice, žel.st.",49.179626,16.823786
1623,"Strnadova",49.205788,16.668753
1624,"Studentská",49.179331,16.569806
1626,"Sušilova",49.204372,16.598725
1627,"Svah",49.165062,16.567843
16301,"Dambořice",49.040033,16.917283
16302,"Dambořice, u pomníku",49.036424,16.917627
16303,"Klobouky u Brna, Bohumilice",49.018714,16.8935
16304,"Klobouky u Brna, Bohumilice, rozc.",49.032173,16.884112
16306,"Velké Hostěrádky, u bytovky",49.035716,16.868238
16307,"Heršpice",49.119348,16.91326
16308,"Heršpice, zelnice",49.122422,16.910233
16309,"Hodějice, rozcestí",49.149573,16.915679
1631,"Svatoplukova",49.2051,16.641425
16310,"Hodějice, točna",49.14025,16.919782
16311,"Hodějice, u mostu",49.142563,16.911732
16312,"Kobeřice, na kopci",49.09734,16.888722
16313,"Kobeřice, pohostinství",49.091723,16.88588
16314,"Křižanovice, požární zbrojnice",49.143667,16.938486
16316,"Křižanovice, u Mlejnku",49.139108,16.937908
16317,"Křižanovice, u přejezdu",49.145083,16.940023
16318,"Křižanovice, žel. st.",49.144917,16.935036
16319,"Němčany, obecní úřad",49.165137,16.920447
1632,"Svážná",49.173477,16.553445
16320,"Němčany, točna",49.168502,16.919492
16321,"Němčany, u kovárny",49.161737,16.918137
16322,"Nížkovice",49.109536,16.901043
16323,"Nížkovice, Na hraničkách",49.11181,16.906248
16324,"Nížkovice, u hřiště",49.107478,16.898393
16325,"Rašovice, škola",49.121055,16.948153
16326,"Rašovice, u křížku",49.124243,16.942548
16327,"Slavkov u Brna, Agrozávod",49.149518,16.853336
16328,"Slavkov u Brna, aut. st.",49.148915,16.876256
16329,"Slavkov u Brna, Cutisín",49.153318,16.892033
1633,"Svratecká",49.218243,16.553765
16330,"Slavkov u Brna, MEZ",49.153356,16.884238
16331,"Slavkov u Brna, poliklinika",49.156224,16.879177
16332,"Slavkov u Brna, rozcestí k žel. st.",49.144493,16.878115
16333,"Slavkov u Brna, žel. st.",49.144848,16.873653
16334,"Velešovice, rozc.",49.167227,16.842336
16335,"Velké Hostěrádky, obecní úřad",49.031262,16.871652
16336,"Heršpice, Bílý Vlk",49.095818,16.909504
16337,"Nížkovice, rozcestí",49.11192,16.895857
16338,"Dambořice, Šerůčky",49.028478,16.93612
16339,"Dambořice, Loučka",49.034669,16.924376
16340,"Borkovany",49.028593,16.809794
16341,"Borkovany, Tomášov",49.029143,16.804831
16342,"Borkovany, Štoček",49.024762,16.81287
16343,"Klobouky u Brna, Nádražní",48.994491,16.878969
16344,"Klobouky u Brna, Martinice, rozcestí",49.013554,16.828333
16345,"Klobouky u Brna, náměstí",48.995306,16.857448
16346,"Klobouky u Brna, ropovod",48.983605,16.862812
16347,"Klobouky u Brna, rozcestí",49.000581,16.862422
16348,"Klobouky u Brna, samoobsluha",48.995116,16.867176
16349,"Klobouky u Brna, samota",48.97557,16.862043
1635,"Šelepova",49.213347,16.596037
16351,"Klobouky u Brna, Wurmova",48.993705,16.863788
16353,"Kašnice",48.99655,16.882844
16354,"Morkůvky",48.966,16.861158
16355,"Morkůvky, obecní úřad",48.966445,16.862965
16356,"Klobouky u Brna, hřbitov",48.998318,16.862927
16357,"Otnice, Na Konci",49.089579,16.80605
1636,"Šárka",49.191439,16.545825
1637,"Šilingrovo náměstí",49.192077,16.604799
1638,"Šimáčkova",49.209487,16.696101
1639,"Škrobárenská",49.182874,16.626291
1640,"Šmahova",49.171802,16.684739
16401,"Bučovice, aut. st.",49.148057,17.001665
16402,"Bučovice, garáže ČSAD",49.149067,16.995883
16403,"Bučovice, jatky",49.153914,16.987459
16404,"Bučovice, Marefy, náves",49.146454,16.970496
16405,"Bučovice, Marefy, rozc. Letonice",49.151897,16.970958
16406,"Bučovice, Marefy, žel. st.",49.1493,16.972999
16407,"Bučovice, u školy",49.155433,17.000171
16408,"Letonice, obecní úřad",49.177406,16.959463
16409,"Letonice, u kaple",49.172073,16.963862
1641,"Škroupova",49.192004,16.647978
16410,"Mouřínov",49.120978,16.979238
16411,"Mouřínov, statek",49.125758,16.977952
16412,"Kojátky, Kaštanov",49.169503,17.023095
16413,"Kojátky, Šardičky",49.174402,17.030752
16414,"Kojátky, dědina",49.171662,17.028202
16415,"Kojátky, rozcestí",49.168142,17.006374
16416,"Bohaté Málkovice",49.189408,17.014263
16417,"Bohdalice-Pavlovice, Bohdalice",49.214011,17.030398
16418,"Bohdalice-Pavlovice, Hradčany",49.209997,17.032604
16419,"Bohdalice-Pavlovice, Manerov",49.231683,17.024695
1642,"Špačkova",49.190872,16.659173
16420,"Bohdalice-Pavlovice, Pavlovice, rozcestí",49.219397,17.035426
16421,"Bohdalice-Pavlovice, Pavlovice",49.211982,17.05992
16422,"Hlubočany, Terešov, rozcestí",49.243573,17.019876
16423,"Hlubočany",49.230539,16.998032
16424,"Kozlany",49.203844,17.035187
16425,"Kučerov, dolní konec",49.216831,17.00295
16426,"Kučerov",49.220182,17.006398
16427,"Lysovice, kulturní dům",49.218924,16.973891
16428,"Lysovice, obecní úřad",49.21765,16.970492
16429,"Bučovice, Černčín, rozcestí",49.157273,17.007965
1643,"Štefánikova",49.215332,16.599141
16430,"Bučovice, Černčín, ZD",49.15532,17.021122
16431,"Bučovice, Černčín",49.156218,17.028398
16432,"Bučovice, Kloboučky, škola",49.133729,17.006279
16433,"Bučovice, Kloboučky, točna",49.131123,17.01126
16434,"Bučovice, Vícemilice",49.14097,17.018388
16435,"Bučovice, dům mládeže",49.15279,17.009439
16436,"Násedlovice, kostel",49.014265,16.961614
16437,"Násedlovice, mlýn",49.007289,16.966863
16438,"Násedlovice, u hřiště",49.009198,16.958218
16439,"Násedlovice",49.011567,16.958012
1644,"Šromova",49.13387,16.650873
16440,"Uhřice, Janův Dvůr",49.023762,16.96208
16441,"Uhřice, dolní zastávka",49.047816,16.949199
16442,"Uhřice, horní zastávka",49.050976,16.945998
16444,"Žarošice, Silničná, rozcestí Uhřice",49.051917,16.952777
16445,"Žarošice, Těšanka",49.079085,16.936527
16446,"Žarošice, Zdravá Voda",49.065466,16.945145
16448,"Žarošice, škola",49.039386,16.96151
16449,"Žarošice",49.040544,16.966948
16450,"Žarošice, Zdravá Voda, osada",49.068145,16.951918
16451,"Bučovice, zdravotní středisko",49.14811,17.005643
16452,"Brumovice, obecní úřad",48.959188,16.896288
16453,"Brumovice, škola",48.962954,16.896326
16454,"Brumovice, železniční stanice",48.947197,16.905823
16455,"Karlín",48.975593,16.977302
16456,"Karlín, farma",48.983167,16.974167
16457,"Krumvíř, obecní úřad",48.988929,16.910556
16458,"Krumvíř, samota Kumstát",48.996122,16.900578
16459,"Krumvíř, sokolovna",48.990167,16.908806
1646,"Štefánikova čtvrť",49.217256,16.627926
16460,"Krumvíř, statek",48.981398,16.923495
16461,"Krumvíř, železniční stanice",48.984981,16.9172
16462,"Terezín",48.956758,16.940812
16463,"Bučovice, železniční stanice",49.145868,17.000023
16465,"Žarošice, za školou",49.03792,16.961528
16466,"Krumvíř, supermarket",48.993497,16.893267
1647,"Štěpánkova",49.251442,16.623214
